Calendar Year,ACARA SML ID,AGE ID,School Name,Suburb,State,Postcode,School Sector,School Type,Campus Type,Rolled Reporting Description,Latitude,Longitude,ABS Remoteness Area,ABS Remoteness Area Name,Meshblock,Statistical Area 1,Statistical Area 2,Statistical Area 2 Name,Statistical Area 3,Statistical Area 3 Name,Statistical Area 4,Statistical Area 4 Name,Local Government Area,Local Government Area Name
2020,40000,3,Corpus Christi Catholic School,BELLERIVE,TAS,7018,Catholic,Primary,School Single Entity,Individual Reporting,-42.871256,147.371473,1,Inner Regional,60032390000,60102100410,601021004,Bellerive - Rosny,60102,Hobart - North East,601,Hobart,61410,Clarence (C)
2020,40001,4,Fahan School,SANDY BAY,TAS,7005,Independent,Combined,School Single Entity,Individual Reporting,-42.91615827,147.3527644,1,Inner Regional,60105761500,60105103105,601051031,Sandy Bay,60105,Hobart Inner,601,Hobart,62810,Hobart (C)
2020,40002,5,Geneva Christian College,LATROBE,TAS,7307,Independent,Combined,School Single Entity,Individual Reporting,-41.226741,146.438726,2,Outer Regional,60078690000,60402108720,604021087,Latrobe,60402,Devonport,604,West and North West,63810,Latrobe (M) (Tas.)
2020,40003,7,Holy Rosary Catholic School,CLAREMONT,TAS,7011,Catholic,Primary,School Single Entity,Individual Reporting,-42.789375,147.248306,1,Inner Regional,60050000000,60103101510,601031015,Claremont (Tas.),60103,Hobart - North West,601,Hobart,62610,Glenorchy (C)
2020,40004,9,Immaculate Heart of Mary Catholic School,LENAH VALLEY,TAS,7008,Catholic,Primary,School Single Entity,Individual Reporting,-42.865543,147.290159,1,Inner Regional,60058010000,60105102812,601051028,Lenah Valley - Mount Stuart,60105,Hobart Inner,601,Hobart,62810,Hobart (C)
2020,40005,10,John Calvin School,LAUNCESTON,TAS,7250,Independent,Combined,School Single Entity,Individual Reporting,-41.447919,147.144799,1,Inner Regional,60080780000,60201104710,602011047,South Launceston,60201,Launceston,602,Launceston and North East,64010,Launceston (C)
2020,40006,11,Larmenier Catholic School,ST LEONARDS,TAS,7250,Catholic,Primary,School Single Entity,Individual Reporting,-41.460784,147.194752,1,Inner Regional,60083570000,60201105004,602011050,Waverley - St Leonards,60201,Launceston,602,Launceston and North East,64010,Launceston (C)
2020,40007,12,Launceston Church Grammar School,MOWBRAY,TAS,7248,Independent,Secondary,School Head Campus,Rolled Reporting,-41.408156,147.128813,1,Inner Regional,60087010000,60201104001,602011040,Mowbray,60201,Launceston,602,Launceston and North East,64010,Launceston (C)
2020,40008,13,St James Catholic College,CYGNET,TAS,7112,Catholic,Combined,School Single Entity,Individual Reporting,-43.161812,147.075798,2,Outer Regional,60064650000,60302107002,603021070,Cygnet,60302,Huon - Bruny Island,603,South East,63010,Huon Valley (M)
2020,40009,18,Our Lady of Lourdes Catholic School,DEVONPORT,TAS,7310,Catholic,Primary,School Single Entity,Individual Reporting,-41.18021,146.355196,1,Inner Regional,60040710000,60402108502,604021085,Devonport,60402,Devonport,604,West and North West,61610,Devonport (C)
2020,40010,19,Our Lady of Mercy Catholic School,DELORAINE,TAS,7304,Catholic,Primary,School Single Entity,Individual Reporting,-41.525172,146.64995,2,Outer Regional,60092740000,60202105406,602021054,Deloraine,60202,Meander Valley - West Tamar,602,Launceston and North East,64210,Meander Valley (M)
2020,40011,22,Sacred Heart Catholic School,ULVERSTONE,TAS,7315,Catholic,Primary,School Single Entity,Individual Reporting,-41.155798,146.186851,2,Outer Regional,60010250000,60401108214,604011082,Ulverstone,60401,Burnie - Ulverstone,604,West and North West,60810,Central Coast (M) (Tas.)
2020,40012,23,Sacred Heart Catholic School,GEEVESTON,TAS,7116,Catholic,Primary,School Single Entity,Individual Reporting,-43.165474,146.943967,2,Outer Regional,60066120000,60302107101,603021071,Geeveston - Dover,60302,Huon - Bruny Island,603,South East,63010,Huon Valley (M)
2020,40013,24,St Aloysius Catholic College - Kingston Beach Campus,KINGSTON BEACH,TAS,7050,Catholic,Combined,School Sub-Campus and Single entity,Rolled Reporting,-42.99075,147.322982,1,Inner Regional,60074400000,60104102323,601041023,Kingston Beach - Blackmans Bay,60104,Hobart - South and West,601,Hobart,63610,Kingborough (M)
2020,40014,26,St Anthony's Catholic School,RIVERSIDE,TAS,7250,Catholic,Primary,School Single Entity,Individual Reporting,-41.4062,147.095,1,Inner Regional,60107960000,60201104617,602011046,Riverside,60201,Launceston,602,Launceston and North East,65810,West Tamar (M)
2020,40015,27,St Peter Chanel Catholic School,SMITHTON,TAS,7330,Catholic,Primary,School Single Entity,Individual Reporting,-40.845638,145.131883,2,Outer Regional,60014680000,60403109505,604031095,Smithton,60403,West Coast,604,West and North West,61210,Circular Head (M)
2020,40016,29,St Brigid's Catholic School,NEW NORFOLK,TAS,7140,Catholic,Primary,School Single Entity,Individual Reporting,-42.78063,147.056171,1,Inner Regional,60036510000,60103102005,601031020,New Norfolk,60103,Hobart - North West,601,Hobart,61510,Derwent Valley (M)
2020,40017,30,St Brigid's Catholic School,WYNYARD,TAS,7325,Catholic,Primary,School Single Entity,Individual Reporting,-40.988286,145.726855,2,Outer Regional,60105790900,60401108414,604011084,Wynyard,60401,Burnie - Ulverstone,604,West and North West,65410,Waratah/Wynyard (M)
2020,40018,31,St Cuthbert's Catholic School,LINDISFARNE,TAS,7015,Catholic,Primary,School Single Entity,Individual Reporting,-42.843192,147.355348,1,Inner Regional,60031220000,60102100802,601021008,Lindisfarne - Rose Bay,60102,Hobart - North East,601,Hobart,61410,Clarence (C)
2020,40019,36,St John's Catholic School,RICHMOND,TAS,7025,Catholic,Primary,School Single Entity,Individual Reporting,-42.733415,147.441563,1,Inner Regional,60030762000,60106103511,601061035,Sorell - Richmond,60106,Sorell - Dodges Ferry,601,Hobart,61410,Clarence (C)
2020,40020,38,St Joseph's Catholic School,ROSEBERY,TAS,7470,Catholic,Primary,School Single Entity,Individual Reporting,-41.780321,145.543953,3,Remote,60105890000,60403109701,604031097,West Coast (Tas.),60403,West Coast,604,West and North West,65610,West Coast (M)
2020,40021,39,St Joseph's Catholic School,QUEENSTOWN,TAS,7467,Catholic,Primary,School Single Entity,Individual Reporting,-42.081342,145.559515,3,Remote,60106410000,60403109717,604031097,West Coast (Tas.),60403,West Coast,604,West and North West,65610,West Coast (M)
2020,40022,40,St Mary's College,HOBART,TAS,7000,Catholic,Combined,School Single Entity,Individual Reporting,-42.881231,147.319127,1,Inner Regional,60057950000,60105102717,601051027,Hobart,60105,Hobart Inner,601,Hobart,62810,Hobart (C)
2020,40023,45,St Patrick's Catholic School,LATROBE,TAS,7307,Catholic,Primary,School Single Entity,Individual Reporting,-41.235575,146.418418,1,Inner Regional,60079890000,60402108712,604021087,Latrobe,60402,Devonport,604,West and North West,63810,Latrobe (M) (Tas.)
2020,40024,47,St Therese's Catholic School,MOONAH,TAS,7009,Catholic,Primary,School Single Entity,Individual Reporting,-42.846795,147.290228,1,Inner Regional,60055490000,60103101910,601031019,Moonah,60103,Hobart - North West,601,Hobart,62610,Glenorchy (C)
2020,40025,55,Hilliard Christian School,WEST MOONAH,TAS,7009,Independent,Combined,School Single Entity,Individual Reporting,-42.853786,147.28761,1,Inner Regional,60053460000,60103102103,601031021,West Moonah,60103,Hobart - North West,601,Hobart,62610,Glenorchy (C)
2020,40026,56,Star of the Sea Catholic College,GEORGE TOWN,TAS,7253,Catholic,Combined,School Single Entity,Individual Reporting,-41.107781,146.829593,2,Outer Regional,60045162000,60203105917,602031059,George Town,60203,North East,602,Launceston and North East,62210,George Town (M)
2020,40027,58,Stella Maris Catholic School,BURNIE,TAS,7320,Catholic,Primary,School Single Entity,Individual Reporting,-41.051103,145.887728,2,Outer Regional,60005320000,60401107816,604011078,Parklands - Camdale,60401,Burnie - Ulverstone,604,West and North West,60610,Burnie (C)
2020,40028,59,The Friends' School,NORTH HOBART,TAS,7000,Independent,Combined,School Head Campus,Rolled Reporting,-42.869285,147.313375,1,Inner Regional,60058160000,60105102703,601051027,Hobart,60105,Hobart Inner,601,Hobart,62810,Hobart (C)
2020,40029,60,The Hutchins School,SANDY BAY,TAS,7005,Independent,Combined,School Single Entity,Individual Reporting,-42.905952,147.330242,1,Inner Regional,60058180000,60105103127,601051031,Sandy Bay,60105,Hobart Inner,601,Hobart,62810,Hobart (C)
2020,40030,2261,The Cottage School,BELLERIVE,TAS,7018,Independent,Primary,School Single Entity,Individual Reporting,-42.875405,147.367494,1,Inner Regional,60032571000,60102100409,601021004,Bellerive - Rosny,60102,Hobart - North East,601,Hobart,61410,Clarence (C)
2020,40031,2801,Launceston Christian School,RIVERSIDE,TAS,7250,Independent,Combined,School Single Entity,Individual Reporting,-41.401842,147.090571,1,Inner Regional,60107800000,60201104617,602011046,Riverside,60201,Launceston,602,Launceston and North East,65810,West Tamar (M)
2020,40032,2802,Leighland Christian School,ULVERSTONE,TAS,7315,Independent,Secondary,School Head Campus,Rolled Reporting,-41.153547,146.195067,2,Outer Regional,60010220000,60401108204,604011082,Ulverstone,60401,Burnie - Ulverstone,604,West and North West,60810,Central Coast (M) (Tas.)
2020,40033,2803,North West Christian School,PENGUIN,TAS,7316,Independent,Combined,School Single Entity,Individual Reporting,-41.123571,146.080384,2,Outer Regional,60009170000,60401107910,604011079,Penguin - Sulphur Creek,60401,Burnie - Ulverstone,604,West and North West,60810,Central Coast (M) (Tas.)
2020,40035,2805,St Michael's Collegiate School,HOBART,TAS,7000,Independent,Combined,School Head Campus,Rolled Reporting,-42.888185,147.323435,1,Inner Regional,60058070000,60105102720,601051027,Hobart,60105,Hobart Inner,601,Hobart,62810,Hobart (C)
2020,40036,2809,Scotch Oakburn College,NEWSTEAD,TAS,7250,Independent,Combined,School Head Campus,Rolled Reporting,-41.449213,147.168873,1,Inner Regional,60089610000,60201104208,602011042,Newstead,60201,Launceston,602,Launceston and North East,64010,Launceston (C)
2020,40037,2816,John Paul II Catholic School,CLARENDON VALE,TAS,7019,Catholic,Primary,School Single Entity,Individual Reporting,-42.8945,147.447,1,Inner Regional,60105782600,60102101114,601021011,Rokeby,60102,Hobart - North East,601,Hobart,61410,Clarence (C)
2020,40038,2818,The Launceston Preparatory School,LAUNCESTON,TAS,7250,Independent,Primary,School Single Entity,Individual Reporting,-41.4374,147.158,1,Inner Regional,60086550000,60201104201,602011042,Newstead,60201,Launceston,602,Launceston and North East,64010,Launceston (C)
2020,40039,2819,Eastside Lutheran College,WARRANE,TAS,7018,Independent,Combined,School Single Entity,Individual Reporting,-42.851645,147.383845,1,Inner Regional,60031860000,60102100909,601021009,Mornington - Warrane,60102,Hobart - North East,601,Hobart,61410,Clarence (C)
2020,40041,4213,St Thomas More's Catholic School,NEWSTEAD,TAS,7250,Catholic,Primary,School Single Entity,Individual Reporting,-41.44512,147.157534,1,Inner Regional,60082130000,60201104213,602011042,Newstead,60201,Launceston,602,Launceston and North East,64010,Launceston (C)
2020,40042,4505,St Paul's Catholic School,BRIDGEWATER,TAS,7030,Catholic,Primary,School Single Entity,Individual Reporting,-42.737339,147.247605,1,Inner Regional,60003440000,60101100116,601011001,Bridgewater - Gagebrook,60101,Brighton,601,Hobart,60410,Brighton (M)
2020,40043,5272,Circular Head Christian School,SMITHTON,TAS,7330,Independent,Combined,School Single Entity,Individual Reporting,-40.8497,145.118,2,Outer Regional,60015110000,60403109511,604031095,Smithton,60403,West Coast,604,West and North West,61210,Circular Head (M)
2020,40044,5918,Southern Christian College,KINGSTON,TAS,7050,Independent,Combined,School Single Entity,Individual Reporting,-42.990905,147.307777,1,Inner Regional,60075840000,60104102224,601041022,Kingston - Huntingfield,60104,Hobart - South and West,601,Hobart,63610,Kingborough (M)
2020,40045,6592,Brooks High School,ROCHERLEA,TAS,7248,Government,Secondary,School Single Entity,Individual Reporting,-41.37813391,147.1213599,1,Inner Regional,60085550000,60201104122,602011041,Newnham - Mayfield,60201,Launceston,602,Launceston and North East,64010,Launceston (C)
2020,40046,6593,Flinders Island District High School,WHITEMARK,TAS,7255,Government,Combined,School Single Entity,Individual Reporting,-40.11254151,148.0348628,4,Very Remote,60043710000,60203109902,602031099,Flinders and Cape Barren Islands,60203,North East,602,Launceston and North East,62010,Flinders (M) (Tas.)
2020,40047,6595,Lilydale District School,LILYDALE,TAS,7268,Government,Combined,School Single Entity,Individual Reporting,-41.25251745,147.2159829,2,Outer Regional,60105787100,60203105801,602031058,Dilston - Lilydale,60203,North East,602,Launceston and North East,64010,Launceston (C)
2020,40048,6596,Ravenswood Heights Primary School,RAVENSWOOD,TAS,7250,Government,Primary,School Single Entity,Individual Reporting,-41.41878768,147.1753683,1,Inner Regional,60088970000,60201104512,602011045,Ravenswood,60201,Launceston,602,Launceston and North East,64010,Launceston (C)
2020,40049,6597,Scottsdale High School,SCOTTSDALE,TAS,7260,Government,Secondary,School Single Entity,Individual Reporting,-41.1546,147.51,2,Outer Regional,60042060000,60203110012,602031100,Scottsdale - Bridport,60203,North East,602,Launceston and North East,61810,Dorset (M)
2020,40050,6600,Parklands High School,ROMAINE,TAS,7320,Government,Secondary,School Single Entity,Individual Reporting,-41.07905504,145.90176,2,Outer Regional,60006830000,60401108006,604011080,Romaine - Havenview,60401,Burnie - Ulverstone,604,West and North West,60610,Burnie (C)
2020,40051,6601,Reece High School,DEVONPORT,TAS,7310,Government,Secondary,School Single Entity,Individual Reporting,-41.189,146.352,1,Inner Regional,60040450000,60402108521,604021085,Devonport,60402,Devonport,604,West and North West,61610,Devonport (C)
2020,40052,6602,Ulverstone Secondary College,ULVERSTONE,TAS,7315,Government,Secondary,School Single Entity,Individual Reporting,-41.16325954,146.1708234,2,Outer Regional,60010040000,60401108203,604011082,Ulverstone,60401,Burnie - Ulverstone,604,West and North West,60810,Central Coast (M) (Tas.)
2020,40053,6603,Wynyard High School,WYNYARD,TAS,7325,Government,Secondary,School Single Entity,Individual Reporting,-40.98627358,145.7176428,2,Outer Regional,60103160000,60401108409,604011084,Wynyard,60401,Burnie - Ulverstone,604,West and North West,65410,Waratah/Wynyard (M)
2020,40054,6604,Cosgrove High School,GLENORCHY,TAS,7010,Government,Secondary,School Single Entity,Individual Reporting,-42.83650615,147.283187,1,Inner Regional,60051740000,60103101709,601031017,Glenorchy,60103,Hobart - North West,601,Hobart,62610,Glenorchy (C)
2020,40056,6608,Dover District School,DOVER,TAS,7117,Government,Combined,School Single Entity,Individual Reporting,-43.31008295,147.0130337,2,Outer Regional,60067150000,60302107103,603021071,Geeveston - Dover,60302,Huon - Bruny Island,603,South East,63010,Huon Valley (M)
2020,40057,6609,Geeveston Primary School,GEEVESTON,TAS,7116,Government,Primary,School Single Entity,Individual Reporting,-43.16224412,146.9221263,2,Outer Regional,60067160000,60302107106,603021071,Geeveston - Dover,60302,Huon - Bruny Island,603,South East,63010,Huon Valley (M)
2020,40058,6610,Huonville High School,HUONVILLE,TAS,7109,Government,Secondary,School Single Entity,Individual Reporting,-43.02374508,147.0469488,2,Outer Regional,60067000000,60302107218,603021072,Huonville - Franklin,60302,Huon - Bruny Island,603,South East,63010,Huon Valley (M)
2020,40059,6611,Bayview Secondary College,ROKEBY,TAS,7019,Government,Secondary,School Single Entity,Individual Reporting,-42.89719843,147.4450042,1,Inner Regional,60033880000,60102101112,601021011,Rokeby,60102,Hobart - North East,601,Hobart,61410,Clarence (C)
2020,40060,6614,Bothwell District High School,BOTHWELL,TAS,7030,Government,Combined,School Single Entity,Individual Reporting,-42.38402831,147.0157196,2,Outer Regional,60013010000,60301106501,603011065,Central Highlands,60301,Central Highlands (Tas.),603,South East,61010,Central Highlands (M) (Tas.)
2020,40061,6615,Deloraine High School,DELORAINE,TAS,7304,Government,Secondary,School Single Entity,Individual Reporting,-41.52974888,146.6601803,2,Outer Regional,60092751000,60202105403,602021054,Deloraine,60202,Meander Valley - West Tamar,602,Launceston and North East,64210,Meander Valley (M)
2020,40062,6616,Glenora District School,GLENORA,TAS,7140,Government,Combined,School Single Entity,Individual Reporting,-42.69690112,146.8894489,2,Outer Regional,60037080000,60301106606,603011066,Derwent Valley,60301,Central Highlands (Tas.),603,South East,61510,Derwent Valley (M)
2020,40063,6618,New Norfolk High School,NEW NORFOLK,TAS,7140,Government,Secondary,School Single Entity,Individual Reporting,-42.78854201,147.061232,1,Inner Regional,60036640000,60103102006,601031020,New Norfolk,60103,Hobart - North West,601,Hobart,61510,Derwent Valley (M)
2020,40064,6619,Oatlands District High School,OATLANDS,TAS,7120,Government,Combined,School Single Entity,Individual Reporting,-42.30055552,147.3708017,2,Outer Regional,60105773000,60301106710,603011067,Southern Midlands,60301,Central Highlands (Tas.),603,South East,65010,Southern Midlands (M)
2020,40065,6620,Ouse District School,OUSE,TAS,7140,Government,Primary,School Single Entity,Individual Reporting,-42.48152312,146.707466,2,Outer Regional,60105771200,60301106505,603011065,Central Highlands,60301,Central Highlands (Tas.),603,South East,61010,Central Highlands (M) (Tas.)
2020,40066,6621,Rosebery District High School,ROSEBERY,TAS,7470,Government,Combined,School Single Entity,Individual Reporting,-41.77912684,145.5424723,3,Remote,60105970000,60403109701,604031097,West Coast (Tas.),60403,West Coast,604,West and North West,65610,West Coast (M)
2020,40067,6622,St Helens District High School,ST HELENS,TAS,7216,Government,Combined,School Single Entity,Individual Reporting,-41.32453944,148.2462974,2,Outer Regional,60105772500,60203106421,602031064,St Helens - Scamander,60203,North East,602,Launceston and North East,60210,Break O'Day (M)
2020,40068,6623,St Marys District School,ST MARYS,TAS,7215,Government,Combined,School Single Entity,Individual Reporting,-41.58478994,148.1893989,2,Outer Regional,60000560000,60203106415,602031064,St Helens - Scamander,60203,North East,602,Launceston and North East,60210,Break O'Day (M)
2020,40069,6624,Triabunna District School,TRIABUNNA,TAS,7190,Government,Combined,School Single Entity,Individual Reporting,-42.50742508,147.9110679,2,Outer Regional,60048010000,60303107419,603031074,Triabunna - Bicheno,60303,South East Coast,603,South East,62410,Glamorgan/Spring Bay (M)
2020,40070,6777,Burnie High School,COOEE,TAS,7320,Government,Secondary,School Single Entity,Individual Reporting,-41.0415376,145.8664653,2,Outer Regional,60005490000,60401107813,604011078,Parklands - Camdale,60401,Burnie - Ulverstone,604,West and North West,60610,Burnie (C)
2020,40071,6778,Campbell Town District High School,CAMPBELL TOWN,TAS,7210,Government,Combined,School Single Entity,Individual Reporting,-41.92446399,147.4909676,2,Outer Regional,60096490000,60203106102,602031061,Northern Midlands,60203,North East,602,Launceston and North East,64610,Northern Midlands (M)
2020,40072,6779,Cressy District High School,CRESSY,TAS,7302,Government,Combined,School Single Entity,Individual Reporting,-41.69093755,147.0771548,2,Outer Regional,60096460000,60203106109,602031061,Northern Midlands,60203,North East,602,Launceston and North East,64610,Northern Midlands (M)
2020,40073,6780,Dunalley Primary School,DUNALLEY,TAS,7177,Government,Primary,School Single Entity,Individual Reporting,-42.88518675,147.8121586,2,Outer Regional,60099530000,60106103417,601061034,Dodges Ferry - Lewisham,60106,Sorell - Dodges Ferry,601,Hobart,64810,Sorell (M)
2020,40074,6781,Exeter High School,EXETER,TAS,7275,Government,Secondary,School Single Entity,Individual Reporting,-41.30062736,146.9575218,2,Outer Regional,60105789200,60202105502,602021055,Grindelwald - Lanena,60202,Meander Valley - West Tamar,602,Launceston and North East,65810,West Tamar (M)
2020,40075,6783,King Island District High School,CURRIE,TAS,7256,Government,Combined,School Single Entity,Individual Reporting,-39.92665469,143.8559413,4,Very Remote,60069450000,60403109304,604031093,King Island,60403,West Coast,604,West and North West,63410,King Island (M)
2020,40076,6784,Kingston High School,KINGSTON,TAS,7050,Government,Secondary,School Single Entity,Individual Reporting,-42.97371542,147.3081315,1,Inner Regional,60074070000,60104102221,601041022,Kingston - Huntingfield,60104,Hobart - South and West,601,Hobart,63610,Kingborough (M)
2020,40077,6785,Kings Meadows High School,KINGS MEADOWS,TAS,7249,Government,Secondary,School Single Entity,Individual Reporting,-41.47386659,147.1595691,1,Inner Regional,60086140000,60201103712,602011037,Kings Meadows - Punchbowl,60201,Launceston,602,Launceston and North East,64010,Launceston (C)
2020,40078,6786,Ogilvie High School,NEW TOWN,TAS,7008,Government,Secondary,School Single Entity,Individual Reporting,-42.85444367,147.3004693,1,Inner Regional,60058090000,60105103007,601051030,New Town,60105,Hobart Inner,601,Hobart,62810,Hobart (C)
2020,40080,6788,Prospect High School,PROSPECT,TAS,7250,Government,Secondary,School Single Entity,Individual Reporting,-41.47580035,147.1309319,1,Inner Regional,60105809700,60201104802,602011048,Summerhill - Prospect,60201,Launceston,602,Launceston and North East,64010,Launceston (C)
2020,40081,6789,Riverside High School,RIVERSIDE,TAS,7250,Government,Secondary,School Single Entity,Individual Reporting,-41.40905097,147.099558,1,Inner Regional,60109540000,60201104617,602011046,Riverside,60201,Launceston,602,Launceston and North East,65810,West Tamar (M)
2020,40082,6792,Smithton High School,SMITHTON,TAS,7330,Government,Secondary,School Single Entity,Individual Reporting,-40.83816677,145.1164488,2,Outer Regional,60015180000,60403109502,604031095,Smithton,60403,West Coast,604,West and North West,61210,Circular Head (M)
2020,40083,6793,Sorell School,SORELL,TAS,7172,Government,Combined,School Single Entity,Individual Reporting,-42.78592321,147.5606233,1,Inner Regional,60098270000,60106103522,601061035,Sorell - Richmond,60106,Sorell - Dodges Ferry,601,Hobart,64810,Sorell (M)
2020,40084,6794,Taroona High School,TAROONA,TAS,7053,Government,Secondary,School Single Entity,Individual Reporting,-42.94341,147.3559,1,Inner Regional,60073580000,60104102608,601041026,Taroona - Bonnet Hill,60104,Hobart - South and West,601,Hobart,63610,Kingborough (M)
2020,40085,6795,Tasman District School,NUBEENA,TAS,7184,Government,Combined,School Single Entity,Individual Reporting,-43.09833639,147.7470655,2,Outer Regional,60102100000,60303107307,603031073,Forestier - Tasman,60303,South East Coast,603,South East,65210,Tasman (M)
2020,40086,6796,Winnaleah District High School,WINNALEAH,TAS,7265,Government,Combined,School Single Entity,Individual Reporting,-41.09549637,147.8238657,2,Outer Regional,60041360000,60203110003,602031100,Scottsdale - Bridport,60203,North East,602,Launceston and North East,61810,Dorset (M)
2020,40087,6797,Woodbridge School,WOODBRIDGE,TAS,7162,Government,Combined,School Single Entity,Individual Reporting,-43.164652,147.239683,2,Outer Regional,60077850000,60302106904,603021069,Bruny Island - Kettering,60302,Huon - Bruny Island,603,South East,63610,Kingborough (M)
2020,40088,6798,Yolla District School,YOLLA,TAS,7325,Government,Combined,School Single Entity,Individual Reporting,-41.12266948,145.7200995,2,Outer Regional,60105050000,60403109608,604031096,Waratah,60403,West Coast,604,West and North West,65410,Waratah/Wynyard (M)
2020,40090,17543,North West Support School,MIANDETTA,TAS,7310,Government,Combined,School Single Entity,Individual Reporting,-41.072282,145.893098,2,Outer Regional,60006510000,60401107507,604011075,Acton - Upper Burnie,60401,Burnie - Ulverstone,604,West and North West,60610,Burnie (C)
2020,40092,6835,Invermay Primary School,INVERMAY,TAS,7248,Government,Primary,School Single Entity,Individual Reporting,-41.42163515,147.131384,1,Inner Regional,60086570000,60201103604,602011036,Invermay,60201,Launceston,602,Launceston and North East,64010,Launceston (C)
2020,40093,6836,Mowbray Heights Primary School,MOWBRAY,TAS,7248,Government,Primary,School Single Entity,Individual Reporting,-41.40275864,147.133413,1,Inner Regional,60087030000,60201104002,602011040,Mowbray,60201,Launceston,602,Launceston and North East,64010,Launceston (C)
2020,40096,6841,Rose Bay High School,ROSE BAY,TAS,7015,Government,Secondary,School Single Entity,Individual Reporting,-42.86154099,147.3589167,1,Inner Regional,60031990000,60102100805,601021008,Lindisfarne - Rose Bay,60102,Hobart - North East,601,Hobart,61410,Clarence (C)
2020,40097,6842,Queechy High School,NORWOOD,TAS,7250,Government,Secondary,School Single Entity,Individual Reporting,-41.45195332,147.176075,1,Inner Regional,60084800000,60201104302,602011043,Norwood (Tas.),60201,Launceston,602,Launceston and North East,64010,Launceston (C)
2020,40098,6843,Devonport High School,DEVONPORT,TAS,7310,Government,Secondary,School Single Entity,Individual Reporting,-41.17795098,146.3487704,1,Inner Regional,60040010000,60402108533,604021085,Devonport,60402,Devonport,604,West and North West,61610,Devonport (C)
2020,40099,6887,Sacred Heart Catholic School,LAUNCESTON,TAS,7250,Catholic,Primary,School Single Entity,Individual Reporting,-41.445,147.133337,1,Inner Regional,60086060000,60201103810,602011038,Launceston,60201,Launceston,602,Launceston and North East,64010,Launceston (C)
2020,40100,8051,Albuera Street Primary School,BATTERY POINT,TAS,7004,Government,Primary,School Single Entity,Individual Reporting,-42.89123278,147.325883,1,Inner Regional,60105787500,60105102714,601051027,Hobart,60105,Hobart Inner,601,Hobart,62810,Hobart (C)
2020,40101,8052,Campbell Street Primary School,NORTH HOBART,TAS,7000,Government,Primary,School Single Entity,Individual Reporting,-42.87254263,147.3226832,1,Inner Regional,60057780000,60105102706,601051027,Hobart,60105,Hobart Inner,601,Hobart,62810,Hobart (C)
2020,40102,8060,Goulburn Street Primary School,WEST HOBART,TAS,7000,Government,Primary,School Single Entity,Individual Reporting,-42.88779991,147.316925,1,Inner Regional,60058060000,60105103308,601051033,West Hobart,60105,Hobart Inner,601,Hobart,62810,Hobart (C)
2020,40103,8062,Lansdowne Crescent Primary School,WEST HOBART,TAS,7000,Government,Primary,School Single Entity,Individual Reporting,-42.882125,147.30871,1,Inner Regional,60058050000,60105103315,601051033,West Hobart,60105,Hobart Inner,601,Hobart,62810,Hobart (C)
2020,40104,8063,Mount Stuart Primary School,MOUNT STUART,TAS,7000,Government,Primary,School Single Entity,Individual Reporting,-42.87507847,147.2990696,1,Inner Regional,60058490000,60105102806,601051028,Lenah Valley - Mount Stuart,60105,Hobart Inner,601,Hobart,62810,Hobart (C)
2020,40105,8064,South Hobart Primary School,SOUTH HOBART,TAS,7004,Government,Primary,School Single Entity,Individual Reporting,-42.891817,147.309568,1,Inner Regional,60124200000,60105103218,601051032,South Hobart - Fern Tree,60105,Hobart Inner,601,Hobart,62810,Hobart (C)
2020,40106,8065,Princes Street Primary School,SANDY BAY,TAS,7005,Government,Primary,School Single Entity,Individual Reporting,-42.89924147,147.3184045,1,Inner Regional,60058530000,60105103113,601051031,Sandy Bay,60105,Hobart Inner,601,Hobart,62810,Hobart (C)
2020,40107,8066,Waimea Heights Primary School,SANDY BAY,TAS,7005,Government,Primary,School Single Entity,Individual Reporting,-42.90892029,147.3369141,1,Inner Regional,60058210000,60105103101,601051031,Sandy Bay,60105,Hobart Inner,601,Hobart,62810,Hobart (C)
2020,40108,8067,Taroona Primary School,TAROONA,TAS,7053,Government,Primary,School Single Entity,Individual Reporting,-42.94315177,147.3527989,1,Inner Regional,60073580000,60104102608,601041026,Taroona - Bonnet Hill,60104,Hobart - South and West,601,Hobart,63610,Kingborough (M)
2020,40109,8068,Mount Nelson Primary School,MOUNT NELSON,TAS,7007,Government,Primary,School Single Entity,Individual Reporting,-42.91290931,147.3223708,1,Inner Regional,60058200000,60105102901,601051029,Mount Nelson - Dynnyrne,60105,Hobart Inner,601,Hobart,62810,Hobart (C)
2020,40110,8069,Lenah Valley Primary School,LENAH VALLEY,TAS,7008,Government,Primary,School Single Entity,Individual Reporting,-42.860997,147.289568,1,Inner Regional,60058020000,60105102811,601051028,Lenah Valley - Mount Stuart,60105,Hobart Inner,601,Hobart,62810,Hobart (C)
2020,40111,8070,New Town High School,NEW TOWN,TAS,7008,Government,Secondary,School Single Entity,Individual Reporting,-42.850937,147.302611,1,Inner Regional,60058150000,60105103008,601051030,New Town,60105,Hobart Inner,601,Hobart,62810,Hobart (C)
2020,40112,8071,New Town Primary School,NEW TOWN,TAS,7008,Government,Primary,School Single Entity,Individual Reporting,-42.85748163,147.3000124,1,Inner Regional,60058100000,60105103007,601051030,New Town,60105,Hobart Inner,601,Hobart,62810,Hobart (C)
2020,40113,8072,Bowen Road Primary School,MOONAH,TAS,7009,Government,Primary,School Single Entity,Individual Reporting,-42.84736447,147.3076373,1,Inner Regional,60056330000,60103101906,601031019,Moonah,60103,Hobart - North West,601,Hobart,62610,Glenorchy (C)
2020,40114,8073,Goodwood Primary School,DERWENT PARK,TAS,7009,Government,Primary,School Single Entity,Individual Reporting,-42.83224516,147.2925531,1,Inner Regional,60053590000,60103101608,601031016,Derwent Park - Lutana,60103,Hobart - North West,601,Hobart,62610,Glenorchy (C)
2020,40115,8074,Moonah Primary School,DERWENT PARK,TAS,7009,Government,Primary,School Single Entity,Individual Reporting,-42.83809219,147.2964634,1,Inner Regional,60052140000,60103101608,601031016,Derwent Park - Lutana,60103,Hobart - North West,601,Hobart,62610,Glenorchy (C)
2020,40116,8128,Springfield Gardens Primary School,WEST MOONAH,TAS,7009,Government,Primary,School Single Entity,Individual Reporting,-42.84764764,147.2759479,1,Inner Regional,60052940000,60103102108,601031021,West Moonah,60103,Hobart - North West,601,Hobart,62610,Glenorchy (C)
2020,40119,8133,Rosetta Primary School,ROSETTA,TAS,7010,Government,Primary,School Single Entity,Individual Reporting,-42.82210911,147.2573008,1,Inner Regional,60049740000,60103101808,601031018,Montrose - Rosetta,60103,Hobart - North West,601,Hobart,62610,Glenorchy (C)
2020,40123,8168,Collinsvale Primary School,COLLINSVALE,TAS,7012,Government,Primary,School Single Entity,Individual Reporting,-42.83667338,147.1983997,1,Inner Regional,60049690000,60103101401,601031014,Berriedale - Chigwell,60103,Hobart - North West,601,Hobart,62610,Glenorchy (C)
2020,40125,8170,Lindisfarne North Primary School,GEILSTON BAY,TAS,7015,Government,Primary,School Single Entity,Individual Reporting,-42.838657,147.350274,1,Inner Regional,60031010000,60102100602,601021006,Geilston Bay - Risdon,60102,Hobart - North East,601,Hobart,61410,Clarence (C)
2020,40126,8171,Lindisfarne Primary School,LINDISFARNE,TAS,7015,Government,Primary,School Single Entity,Individual Reporting,-42.85201252,147.3637244,1,Inner Regional,60031710000,60102100812,601021008,Lindisfarne - Rose Bay,60102,Hobart - North East,601,Hobart,61410,Clarence (C)
2020,40127,8172,Risdon Vale Primary School,RISDON VALE,TAS,7016,Government,Primary,School Single Entity,Individual Reporting,-42.81259813,147.3532966,1,Inner Regional,60034630000,60102101005,601021010,Risdon Vale,60102,Hobart - North East,601,Hobart,61410,Clarence (C)
2020,40128,8173,Bellerive Primary School,BELLERIVE,TAS,7018,Government,Primary,School Single Entity,Individual Reporting,-42.87227607,147.3701106,1,Inner Regional,60032500000,60102100419,601021004,Bellerive - Rosny,60102,Hobart - North East,601,Hobart,61410,Clarence (C)
2020,40129,8174,Clarence High School,BELLERIVE,TAS,7018,Government,Secondary,School Single Entity,Individual Reporting,-42.877901,147.3892403,1,Inner Regional,60032810000,60102100413,601021004,Bellerive - Rosny,60102,Hobart - North East,601,Hobart,61410,Clarence (C)
2020,40130,8177,Howrah Primary School,HOWRAH,TAS,7018,Government,Primary,School Single Entity,Individual Reporting,-42.88107919,147.4021105,1,Inner Regional,60105820200,60102100705,601021007,Howrah - Tranmere,60102,Hobart - North East,601,Hobart,61410,Clarence (C)
2020,40131,8178,Montagu Bay Primary School,MONTAGU BAY,TAS,7018,Government,Primary,School Single Entity,Individual Reporting,-42.86449013,147.3522335,1,Inner Regional,60032030000,60102100402,601021004,Bellerive - Rosny,60102,Hobart - North East,601,Hobart,61410,Clarence (C)
2020,40132,8180,Warrane Primary School,WARRANE,TAS,7018,Government,Primary,School Single Entity,Individual Reporting,-42.86122275,147.382622,1,Inner Regional,60032340000,60102100902,601021009,Mornington - Warrane,60102,Hobart - North East,601,Hobart,61410,Clarence (C)
2020,40133,8181,Clarendon Vale Primary School,CLARENDON VALE,TAS,7019,Government,Primary,School Single Entity,Individual Reporting,-42.88738509,147.4443949,1,Inner Regional,60105758700,60102101103,601021011,Rokeby,60102,Hobart - North East,601,Hobart,61410,Clarence (C)
2020,40134,8182,Rokeby Primary School,ROKEBY,TAS,7019,Government,Primary,School Single Entity,Individual Reporting,-42.89897973,147.4337238,1,Inner Regional,60033780000,60102101101,601021011,Rokeby,60102,Hobart - North East,601,Hobart,61410,Clarence (C)
2020,40135,8183,Lauderdale Primary School,LAUDERDALE,TAS,7021,Government,Primary,School Single Entity,Individual Reporting,-42.905072,147.47854,1,Inner Regional,60105767200,60102100511,601021005,Cambridge,60102,Hobart - North East,601,Hobart,61410,Clarence (C)
2020,40136,8184,South Arm Primary School,SOUTH ARM,TAS,7022,Government,Primary,School Single Entity,Individual Reporting,-43.02586187,147.420197,2,Outer Regional,60035600000,60102101201,601021012,South Arm,60102,Hobart - North East,601,Hobart,61410,Clarence (C)
2020,40137,8185,Richmond Primary School,RICHMOND,TAS,7025,Government,Primary,School Single Entity,Individual Reporting,-42.73928054,147.4379846,1,Inner Regional,60030690000,60106103514,601061035,Sorell - Richmond,60106,Sorell - Dodges Ferry,601,Hobart,61410,Clarence (C)
2020,40138,8187,Campania District School,CAMPANIA,TAS,7026,Government,Combined,School Single Entity,Individual Reporting,-42.66628398,147.4236781,2,Outer Regional,60100430000,60301106718,603011067,Southern Midlands,60301,Central Highlands (Tas.),603,South East,65010,Southern Midlands (M)
2020,40139,8188,Glen Huon Primary School,GLEN HUON,TAS,7109,Government,Primary,School Single Entity,Individual Reporting,-43.02813851,146.962378,2,Outer Regional,60105790400,60302107201,603021072,Huonville - Franklin,60302,Huon - Bruny Island,603,South East,63010,Huon Valley (M)
2020,40140,8189,Huonville Primary School,HUONVILLE,TAS,7109,Government,Primary,School Single Entity,Individual Reporting,-43.02374508,147.0469488,2,Outer Regional,60067000000,60302107218,603021072,Huonville - Franklin,60302,Huon - Bruny Island,603,South East,63010,Huon Valley (M)
2020,40141,8191,Cygnet Primary School,CYGNET,TAS,7112,Government,Primary,School Single Entity,Individual Reporting,-43.15825931,147.0722396,2,Outer Regional,60066800000,60302107003,603021070,Cygnet,60302,Huon - Bruny Island,603,South East,63010,Huon Valley (M)
2020,40142,8192,Franklin Primary School,FRANKLIN,TAS,7113,Government,Primary,School Single Entity,Individual Reporting,-43.08553093,147.0118557,2,Outer Regional,60064820000,60302107208,603021072,Huonville - Franklin,60302,Huon - Bruny Island,603,South East,63010,Huon Valley (M)
2020,40143,8193,Kingston Primary School,KINGSTON,TAS,7050,Government,Primary,School Single Entity,Individual Reporting,-42.97934878,147.3099185,1,Inner Regional,60074110000,60104102226,601041022,Kingston - Huntingfield,60104,Hobart - South and West,601,Hobart,63610,Kingborough (M)
2020,40144,8194,Blackmans Bay Primary School,BLACKMANS BAY,TAS,7052,Government,Primary,School Single Entity,Individual Reporting,-42.99699352,147.3212642,1,Inner Regional,60074450000,60104102310,601041023,Kingston Beach - Blackmans Bay,60104,Hobart - South and West,601,Hobart,63610,Kingborough (M)
2020,40145,8195,Margate Primary School,MARGATE,TAS,7054,Government,Primary,School Single Entity,Individual Reporting,-43.028852,147.262095,1,Inner Regional,60075530000,60104102412,601041024,Margate - Snug,60104,Hobart - South and West,601,Hobart,63610,Kingborough (M)
2020,40146,8196,Snug Primary School,SNUG,TAS,7054,Government,Primary,School Single Entity,Individual Reporting,-43.06533258,147.2542694,1,Inner Regional,60075640000,60104102419,601041024,Margate - Snug,60104,Hobart - South and West,601,Hobart,63610,Kingborough (M)
2020,40147,8197,Bruny Island District School,ALONNAH,TAS,7150,Government,Primary,School Single Entity,Individual Reporting,-43.31756067,147.2460519,2,Outer Regional,60077880000,60302106906,603021069,Bruny Island - Kettering,60302,Huon - Bruny Island,603,South East,63610,Kingborough (M)
2020,40148,8198,Cambridge Primary School,CAMBRIDGE,TAS,7170,Government,Primary,School Single Entity,Individual Reporting,-42.83620708,147.4418246,1,Inner Regional,60034410000,60102100521,601021005,Cambridge,60102,Hobart - North East,601,Hobart,61410,Clarence (C)
2020,40150,8202,Evandale Primary School,EVANDALE,TAS,7212,Government,Primary,School Single Entity,Individual Reporting,-41.567519,147.249153,1,Inner Regional,60095062000,60203106205,602031062,Perth - Evandale,60203,North East,602,Launceston and North East,64610,Northern Midlands (M)
2020,40153,8207,Bicheno Primary School,BICHENO,TAS,7215,Government,Primary,School Single Entity,Individual Reporting,-41.87237979,148.3057023,3,Remote,60047280000,60303107404,603031074,Triabunna - Bicheno,60303,South East Coast,603,South East,62410,Glamorgan/Spring Bay (M)
2020,40154,8209,East Launceston Primary School,EAST LAUNCESTON,TAS,7250,Government,Primary,School Single Entity,Individual Reporting,-41.44202283,147.1520445,1,Inner Regional,60086540000,60201103801,602011038,Launceston,60201,Launceston,602,Launceston and North East,64010,Launceston (C)
2020,40155,8211,Glen Dhu Primary School,SOUTH LAUNCESTON,TAS,7249,Government,Primary,School Single Entity,Individual Reporting,-41.45590244,147.1439905,1,Inner Regional,60084410000,60201104701,602011047,South Launceston,60201,Launceston,602,Launceston and North East,64010,Launceston (C)
2020,40156,8213,Norwood Primary School,NORWOOD,TAS,7250,Government,Primary,School Single Entity,Individual Reporting,-41.46210661,147.1742756,1,Inner Regional,60089380000,60201104306,602011043,Norwood (Tas.),60201,Launceston,602,Launceston and North East,64010,Launceston (C)
2020,40157,8214,Punchbowl Primary School,NEWSTEAD,TAS,7250,Government,Primary,School Single Entity,Individual Reporting,-41.45252801,147.1653299,1,Inner Regional,60086290000,60201104204,602011042,Newstead,60201,Launceston,602,Launceston and North East,64010,Launceston (C)
2020,40158,8216,Riverside Primary School,RIVERSIDE,TAS,7250,Government,Primary,School Single Entity,Individual Reporting,-41.41277009,147.1006329,1,Inner Regional,60107752000,60201104617,602011046,Riverside,60201,Launceston,602,Launceston and North East,65810,West Tamar (M)
2020,40159,8217,St Leonards Primary School,ST LEONARDS,TAS,7250,Government,Primary,School Single Entity,Individual Reporting,-41.45970425,147.2003125,1,Inner Regional,60086750000,60201105004,602011050,Waverley - St Leonards,60201,Launceston,602,Launceston and North East,64010,Launceston (C)
2020,40160,8218,Summerdale Primary School,SUMMERHILL,TAS,7250,Government,Primary,School Single Entity,Individual Reporting,-41.46827258,147.1297071,1,Inner Regional,60105779700,60201104808,602011048,Summerhill - Prospect,60201,Launceston,602,Launceston and North East,64010,Launceston (C)
2020,40161,8271,Trevallyn Primary School,TREVALLYN,TAS,7250,Government,Primary,School Single Entity,Individual Reporting,-41.43814374,147.1146624,1,Inner Regional,60084250000,60201104910,602011049,Trevallyn,60201,Launceston,602,Launceston and North East,64010,Launceston (C)
2020,40162,8272,Waverley Primary School,WAVERLEY,TAS,7250,Government,Primary,School Single Entity,Individual Reporting,-41.43207254,147.1901325,1,Inner Regional,60083660000,60201105007,602011050,Waverley - St Leonards,60201,Launceston,602,Launceston and North East,64010,Launceston (C)
2020,40163,8273,West Launceston Primary School,WEST LAUNCESTON,TAS,7250,Government,Primary,School Single Entity,Individual Reporting,-41.44906993,147.1284837,1,Inner Regional,60085010000,60201105107,602011051,West Launceston,60201,Launceston,602,Launceston and North East,64010,Launceston (C)
2020,40164,8274,Youngtown Primary School,YOUNGTOWN,TAS,7249,Government,Primary,School Single Entity,Individual Reporting,-41.482606,147.163844,1,Inner Regional,60085841000,60201105211,602011052,Youngtown - Relbia,60201,Launceston,602,Launceston and North East,64010,Launceston (C)
2020,40165,8276,Port Dalrymple School,GEORGE TOWN,TAS,7253,Government,Combined,School Single Entity,Individual Reporting,-41.09971856,146.8281151,2,Outer Regional,60045370000,60203105905,602031059,George Town,60203,North East,602,Launceston and North East,62210,George Town (M)
2020,40166,8277,South George Town Primary School,GEORGE TOWN,TAS,7253,Government,Primary,School Single Entity,Individual Reporting,-41.11362094,146.8336332,2,Outer Regional,60045200000,60203105910,602031059,George Town,60203,North East,602,Launceston and North East,62210,George Town (M)
2020,40167,8279,Bridport Primary School,BRIDPORT,TAS,7262,Government,Primary,School Single Entity,Individual Reporting,-41.00162041,147.3893709,2,Outer Regional,60042410000,60203110014,602031100,Scottsdale - Bridport,60203,North East,602,Launceston and North East,61810,Dorset (M)
2020,40168,8282,Ringarooma Primary School,RINGAROOMA,TAS,7263,Government,Primary,School Single Entity,Individual Reporting,-41.24228469,147.7332395,2,Outer Regional,60041450000,60203110020,602031100,Scottsdale - Bridport,60203,North East,602,Launceston and North East,61810,Dorset (M)
2020,40169,8283,Scottsdale Primary School,SCOTTSDALE,TAS,7260,Government,Primary,School Single Entity,Individual Reporting,-41.16034658,147.5066538,2,Outer Regional,60042250000,60203110018,602031100,Scottsdale - Bridport,60203,North East,602,Launceston and North East,61810,Dorset (M)
2020,40170,8286,Hagley Farm Primary School,HAGLEY,TAS,7292,Government,Primary,School Single Entity,Individual Reporting,-41.52669149,146.9034023,2,Outer Regional,60093030000,60202105707,602021057,Westbury,60202,Meander Valley - West Tamar,602,Launceston and North East,64210,Meander Valley (M)
2020,40171,8288,Orford Primary School,ORFORD,TAS,7190,Government,Primary,School Single Entity,Individual Reporting,-42.56331933,147.8738424,2,Outer Regional,60047270000,60303107409,603031074,Triabunna - Bicheno,60303,South East Coast,603,South East,62410,Glamorgan/Spring Bay (M)
2020,40172,8289,Swansea Primary School,SWANSEA,TAS,7190,Government,Primary,School Single Entity,Individual Reporting,-42.12236781,148.073201,3,Remote,60048833000,60303107412,603031074,Triabunna - Bicheno,60303,South East Coast,603,South East,62410,Glamorgan/Spring Bay (M)
2020,40173,8290,Bracknell Primary School,BRACKNELL,TAS,7302,Government,Primary,School Single Entity,Individual Reporting,-41.65243695,146.9335869,2,Outer Regional,60092600000,60202105704,602021057,Westbury,60202,Meander Valley - West Tamar,602,Launceston and North East,64210,Meander Valley (M)
2020,40174,8291,Perth Primary School,PERTH,TAS,7300,Government,Primary,School Single Entity,Individual Reporting,-41.57317837,147.1743711,1,Inner Regional,60094560000,60203106211,602031062,Perth - Evandale,60203,North East,602,Launceston and North East,64610,Northern Midlands (M)
2020,40175,8292,Longford Primary School,LONGFORD,TAS,7301,Government,Primary,School Single Entity,Individual Reporting,-41.59593583,147.1169432,1,Inner Regional,60094500000,60203106005,602031060,Longford,60203,North East,602,Launceston and North East,64610,Northern Midlands (M)
2020,40176,8294,Westbury Primary School,WESTBURY,TAS,7303,Government,Primary,School Single Entity,Individual Reporting,-41.53170299,146.838051,2,Outer Regional,60092630000,60202105708,602021057,Westbury,60202,Meander Valley - West Tamar,602,Launceston and North East,64210,Meander Valley (M)
2020,40177,8295,Deloraine Primary School,DELORAINE,TAS,7304,Government,Primary,School Single Entity,Individual Reporting,-41.52867221,146.6627154,2,Outer Regional,60092752000,60202105403,602021054,Deloraine,60202,Meander Valley - West Tamar,602,Launceston and North East,64210,Meander Valley (M)
2020,40179,8297,Mole Creek Primary School,MOLE CREEK,TAS,7304,Government,Primary,School Single Entity,Individual Reporting,-41.55845075,146.405549,2,Outer Regional,60092590000,60202105401,602021054,Deloraine,60202,Meander Valley - West Tamar,602,Launceston and North East,64210,Meander Valley (M)
2020,40180,8298,Latrobe Primary School,LATROBE,TAS,7307,Government,Primary,School Single Entity,Individual Reporting,-41.23961898,146.4160131,1,Inner Regional,60079870000,60402108710,604021087,Latrobe,60402,Devonport,604,West and North West,63810,Latrobe (M) (Tas.)
2020,40182,8300,Sheffield School,SHEFFIELD,TAS,7306,Government,Combined,School Single Entity,Individual Reporting,-41.38460175,146.3245746,2,Outer Regional,60069040000,60402109105,604021091,Sheffield - Railton,60402,Devonport,604,West and North West,63210,Kentish (M)
2020,40183,8301,Latrobe High School,LATROBE,TAS,7307,Government,Secondary,School Single Entity,Individual Reporting,-41.23650373,146.4252532,1,Inner Regional,60079630000,60402108707,604021087,Latrobe,60402,Devonport,604,West and North West,63810,Latrobe (M) (Tas.)
2020,40185,8303,Sassafras Primary School,SASSAFRAS,TAS,7307,Government,Primary,School Single Entity,Individual Reporting,-41.2871478,146.5033138,2,Outer Regional,60105802800,60402108705,604021087,Latrobe,60402,Devonport,604,West and North West,63810,Latrobe (M) (Tas.)
2020,40187,8305,Devonport Primary School,DEVONPORT,TAS,7310,Government,Primary,School Single Entity,Individual Reporting,-41.18023239,146.3574016,1,Inner Regional,60040710000,60402108502,604021085,Devonport,60402,Devonport,604,West and North West,61610,Devonport (C)
2020,40188,8306,East Devonport Primary School,EAST DEVONPORT,TAS,7310,Government,Primary,School Single Entity,Individual Reporting,-41.17792747,146.3721147,1,Inner Regional,60039840000,60402108602,604021086,East Devonport,60402,Devonport,604,West and North West,61610,Devonport (C)
2020,40189,8307,Forth Primary School,FORTH,TAS,7310,Government,Primary,School Single Entity,Individual Reporting,-41.19291547,146.2485823,2,Outer Regional,60010210000,60402109205,604021092,Turners Beach - Forth,60402,Devonport,604,West and North West,60810,Central Coast (M) (Tas.)
2020,40190,8308,Hillcrest Primary School,DEVONPORT,TAS,7310,Government,Primary,School Single Entity,Individual Reporting,-41.1870573,146.3331589,1,Inner Regional,60105763500,60402108529,604021085,Devonport,60402,Devonport,604,West and North West,61610,Devonport (C)
2020,40191,8309,Miandetta Primary School,MIANDETTA,TAS,7310,Government,Primary,School Single Entity,Individual Reporting,-41.1954,146.349,1,Inner Regional,60038790000,60402108805,604021088,Miandetta - Don,60402,Devonport,604,West and North West,61610,Devonport (C)
2020,40192,8310,Nixon Street Primary School,DEVONPORT,TAS,7310,Government,Primary,School Single Entity,Individual Reporting,-41.1729974,146.3382823,1,Inner Regional,60039450000,60402108510,604021085,Devonport,60402,Devonport,604,West and North West,61610,Devonport (C)
2020,40193,8311,Spreyton Primary School,SPREYTON,TAS,7310,Government,Primary,School Single Entity,Individual Reporting,-41.21202919,146.3458559,1,Inner Regional,60038350000,60402109007,604021090,Quoiba - Spreyton,60402,Devonport,604,West and North West,61610,Devonport (C)
2020,40194,8312,Wilmot Primary School,WILMOT,TAS,7310,Government,Primary,School Single Entity,Individual Reporting,-41.38699434,146.1753679,2,Outer Regional,60069090000,60402109113,604021091,Sheffield - Railton,60402,Devonport,604,West and North West,63210,Kentish (M)
2020,40195,8313,East Ulverstone Primary School,ULVERSTONE,TAS,7315,Government,Primary,School Single Entity,Individual Reporting,-41.15452656,146.1917543,2,Outer Regional,60009440000,60401108214,604011082,Ulverstone,60401,Burnie - Ulverstone,604,West and North West,60810,Central Coast (M) (Tas.)
2020,40196,8315,Sprent Primary School,SPRENT,TAS,7315,Government,Primary,School Single Entity,Individual Reporting,-41.26294106,146.1594276,2,Outer Regional,60011620000,60401107602,604011076,Burnie - Ulverstone Region,60401,Burnie - Ulverstone,604,West and North West,60810,Central Coast (M) (Tas.)
2020,40197,8316,Ulverstone Primary School,ULVERSTONE,TAS,7315,Government,Primary,School Single Entity,Individual Reporting,-41.16076112,146.1641443,2,Outer Regional,60010270000,60401108203,604011082,Ulverstone,60401,Burnie - Ulverstone,604,West and North West,60810,Central Coast (M) (Tas.)
2020,40198,8317,West Ulverstone Primary School,WEST ULVERSTONE,TAS,7315,Government,Primary,School Single Entity,Individual Reporting,-41.14816145,146.1595138,2,Outer Regional,60010460000,60401108310,604011083,West Ulverstone,60401,Burnie - Ulverstone,604,West and North West,60810,Central Coast (M) (Tas.)
2020,40200,8319,Riana Primary School,RIANA,TAS,7316,Government,Primary,School Single Entity,Individual Reporting,-41.20249009,145.9989877,2,Outer Regional,60011510000,60401107610,604011076,Burnie - Ulverstone Region,60401,Burnie - Ulverstone,604,West and North West,60810,Central Coast (M) (Tas.)
2020,40203,8322,Burnie Primary School,PARK GROVE,TAS,7320,Government,Primary,School Single Entity,Individual Reporting,-41.0584334,145.8853029,2,Outer Regional,60006931000,60401107801,604011078,Parklands - Camdale,60401,Burnie - Ulverstone,604,West and North West,60610,Burnie (C)
2020,40204,8324,Cooee Primary School,COOEE,TAS,7320,Government,Primary,School Single Entity,Individual Reporting,-41.0415376,145.8664653,2,Outer Regional,60005490000,60401107813,604011078,Parklands - Camdale,60401,Burnie - Ulverstone,604,West and North West,60610,Burnie (C)
2020,40205,8325,Montello Primary School,MONTELLO,TAS,7320,Government,Primary,School Single Entity,Individual Reporting,-41.05990677,145.8985795,2,Outer Regional,60006920000,60401107701,604011077,Burnie - Wivenhoe,60401,Burnie - Ulverstone,604,West and North West,60610,Burnie (C)
2020,40207,8327,Boat Harbour Primary School,BOAT HARBOUR,TAS,7321,Government,Primary,School Single Entity,Individual Reporting,-40.94562609,145.6353569,2,Outer Regional,60102750000,60403109603,604031096,Waratah,60403,West Coast,604,West and North West,65410,Waratah/Wynyard (M)
2020,40208,8328,Havenview Primary School,HAVENVIEW,TAS,7320,Government,Primary,School Single Entity,Individual Reporting,-41.08386446,145.9111684,2,Outer Regional,60006820000,60401108009,604011080,Romaine - Havenview,60401,Burnie - Ulverstone,604,West and North West,60610,Burnie (C)
2020,40209,8329,Natone Primary School,NATONE,TAS,7321,Government,Primary,School Single Entity,Individual Reporting,-41.17012891,145.9217735,2,Outer Regional,60007030000,60401107601,604011076,Burnie - Ulverstone Region,60401,Burnie - Ulverstone,604,West and North West,60610,Burnie (C)
2020,40210,8330,Ridgley Primary School,RIDGLEY,TAS,7321,Government,Primary,School Single Entity,Individual Reporting,-41.13997773,145.8377718,2,Outer Regional,60007480000,60401107612,604011076,Burnie - Ulverstone Region,60401,Burnie - Ulverstone,604,West and North West,60610,Burnie (C)
2020,40211,8337,Table Cape Primary School,WYNYARD,TAS,7325,Government,Primary,School Single Entity,Individual Reporting,-40.98316517,145.7148662,2,Outer Regional,60102810000,60401108411,604011084,Wynyard,60401,Burnie - Ulverstone,604,West and North West,65410,Waratah/Wynyard (M)
2020,40212,8340,Edith Creek Primary School,EDITH CREEK,TAS,7330,Government,Primary,School Single Entity,Individual Reporting,-40.97052056,145.0934073,2,Outer Regional,60015160000,60403109407,604031094,North West,60403,West Coast,604,West and North West,61210,Circular Head (M)
2020,40213,8341,Forest Primary School,FOREST,TAS,7330,Government,Primary,School Single Entity,Individual Reporting,-40.84838284,145.2494153,2,Outer Regional,60015350000,60403109405,604031094,North West,60403,West Coast,604,West and North West,61210,Circular Head (M)
2020,40214,8342,Redpa Primary School,REDPA,TAS,7330,Government,Primary,School Single Entity,Individual Reporting,-40.932925,144.761834,3,Remote,60015340000,60403109408,604031094,North West,60403,West Coast,604,West and North West,61210,Circular Head (M)
2020,40215,8343,Smithton Primary School,SMITHTON,TAS,7330,Government,Primary,School Single Entity,Individual Reporting,-40.84946046,145.1160526,2,Outer Regional,60015110000,60403109511,604031095,Smithton,60403,West Coast,604,West and North West,61210,Circular Head (M)
2020,40216,8344,Stanley Primary School,STANLEY,TAS,7331,Government,Primary,School Single Entity,Individual Reporting,-40.75956582,145.2909851,2,Outer Regional,60015090000,60403109411,604031094,North West,60403,West Coast,604,West and North West,61210,Circular Head (M)
2020,40220,8350,Brighton Primary School,BRIGHTON,TAS,7030,Government,Primary,School Single Entity,Individual Reporting,-42.69909438,147.258458,1,Inner Regional,60002190000,60101100201,601011002,Brighton - Pontville,60101,Brighton,601,Hobart,60410,Brighton (M)
2020,40221,8351,Bagdad Primary School,BAGDAD,TAS,7030,Government,Primary,School Single Entity,Individual Reporting,-42.62489064,147.2229568,1,Inner Regional,60105826600,60301106717,603011067,Southern Midlands,60301,Central Highlands (Tas.),603,South East,65010,Southern Midlands (M)
2020,40222,8352,Kempton Primary School,KEMPTON,TAS,7030,Government,Primary,School Single Entity,Individual Reporting,-42.5311126,147.1991345,2,Outer Regional,60100160000,60301106706,603011067,Southern Midlands,60301,Central Highlands (Tas.),603,South East,65010,Southern Midlands (M)
2020,40223,8353,Fairview Primary School,NEW NORFOLK,TAS,7140,Government,Primary,School Single Entity,Individual Reporting,-42.77432027,147.0509224,1,Inner Regional,60036630000,60103102017,601031020,New Norfolk,60103,Hobart - North West,601,Hobart,61510,Derwent Valley (M)
2020,40224,8355,New Norfolk Primary School,NEW NORFOLK,TAS,7140,Government,Primary,School Single Entity,Individual Reporting,-42.77900115,147.0636691,1,Inner Regional,60036540000,60103102009,601031020,New Norfolk,60103,Hobart - North West,601,Hobart,61510,Derwent Valley (M)
2020,40225,8356,Molesworth Primary School,MOLESWORTH,TAS,7140,Government,Primary,School Single Entity,Individual Reporting,-42.80404026,147.1567787,1,Inner Regional,60036580000,60103102004,601031020,New Norfolk,60103,Hobart - North West,601,Hobart,61510,Derwent Valley (M)
2020,40226,29971,Westerway Primary School,WESTERWAY,TAS,7140,Government,Primary,School Single Entity,Individual Reporting,-42.67762923,146.7873511,2,Outer Regional,60037100000,60301106606,603011066,Derwent Valley,60301,Central Highlands (Tas.),603,South East,61510,Derwent Valley (M)
2020,40228,8365,Strahan Primary School,STRAHAN,TAS,7468,Government,Primary,School Single Entity,Individual Reporting,-42.15342033,145.320347,3,Remote,60105821900,60403109704,604031097,West Coast (Tas.),60403,West Coast,604,West and North West,65610,West Coast (M)
2020,40229,8368,Zeehan Primary School,ZEEHAN,TAS,7469,Government,Primary,School Single Entity,Individual Reporting,-41.88801157,145.3395928,3,Remote,60105790000,60403109708,604031097,West Coast (Tas.),60403,West Coast,604,West and North West,65610,West Coast (M)
2020,40230,13277,Tarremah Steiner School,HUNTINGFIELD,TAS,7055,Independent,Combined,School Single Entity,Individual Reporting,-42.997854,147.289813,1,Inner Regional,60076370000,60104102218,601041022,Kingston - Huntingfield,60104,Hobart - South and West,601,Hobart,63610,Kingborough (M)
2020,40231,13308,Australian Christian College - Burnie,SOMERSET,TAS,7322,Independent,Combined,School Single Entity,Individual Reporting,-41.0444,145.81,2,Outer Regional,60102900000,60401108106,604011081,Somerset,60401,Burnie - Ulverstone,604,West and North West,65410,Waratah/Wynyard (M)
2020,40232,13524,MacKillop Catholic College,MORNINGTON,TAS,7018,Catholic,Secondary,School Single Entity,Individual Reporting,-42.857456,147.400625,1,Inner Regional,60033160000,60102100904,601021009,Mornington - Warrane,60102,Hobart - North East,601,Hobart,61410,Clarence (C)
2020,40233,13525,Devonport Christian School,DON,TAS,7310,Independent,Primary,School Single Entity,Individual Reporting,-41.18196,146.3234,1,Inner Regional,60040040000,60402108807,604021088,Miandetta - Don,60402,Devonport,604,West and North West,61610,Devonport (C)
2020,40234,13832,St Finn Barr's Catholic Primary School,INVERMAY,TAS,7248,Catholic,Primary,School Single Entity,Individual Reporting,-41.415572,147.132923,1,Inner Regional,60085120000,60201103603,602011036,Invermay,60201,Launceston,602,Launceston and North East,64010,Launceston (C)
2020,40235,14375,Giant Steps Tasmania,DELORAINE,TAS,7304,Independent,Combined,School Single Entity,Individual Reporting,-41.5225,146.652,2,Outer Regional,60092822000,60202105405,602021054,Deloraine,60202,Meander Valley - West Tamar,602,Launceston and North East,64210,Meander Valley (M)
2020,40236,14566,Dominic College,GLENORCHY,TAS,7010,Catholic,Combined,School Single Entity,Individual Reporting,-42.848604,147.257738,1,Inner Regional,60105825900,60103101713,601031017,Glenorchy,60103,Hobart - North West,601,Hobart,62610,Glenorchy (C)
2020,40237,14568,Mount Carmel College,SANDY BAY,TAS,7005,Catholic,Combined,School Single Entity,Individual Reporting,-42.901946,147.33217,1,Inner Regional,60105759800,60105103127,601051031,Sandy Bay,60105,Hobart Inner,601,Hobart,62810,Hobart (C)
2020,40238,14569,Sacred Heart College,NEW TOWN,TAS,7008,Catholic,Combined,School Single Entity,Individual Reporting,-42.86218,147.304645,1,Inner Regional,60058030000,60105103004,601051030,New Town,60105,Hobart Inner,601,Hobart,62810,Hobart (C)
2020,40239,14627,Dodges Ferry Primary School,DODGES FERRY,TAS,7173,Government,Primary,School Single Entity,Individual Reporting,-42.84870944,147.6247467,1,Inner Regional,60105788400,60106103420,601061034,Dodges Ferry - Lewisham,60106,Sorell - Dodges Ferry,601,Hobart,64810,Sorell (M)
2020,40240,15072,Exeter Primary School,EXETER,TAS,7275,Government,Primary,School Single Entity,Individual Reporting,-41.29885674,146.956374,2,Outer Regional,60107620000,60202105502,602021055,Grindelwald - Lanena,60202,Meander Valley - West Tamar,602,Launceston and North East,65810,West Tamar (M)
2020,40241,15079,Illawarra Primary School,BLACKMANS BAY,TAS,7052,Government,Primary,School Single Entity,Individual Reporting,-43.0086344,147.3193779,1,Inner Regional,60105781100,60104102319,601041023,Kingston Beach - Blackmans Bay,60104,Hobart - South and West,601,Hobart,63610,Kingborough (M)
2020,40242,15692,OneSchool Global - Hobart Campus,CLAREMONT,TAS,7011,Independent,Combined,School Head Campus,Rolled Reporting,-41.474716,147.172963,1,Inner Regional,60082830000,60201103708,602011037,Kings Meadows - Punchbowl,60201,Launceston,602,Launceston and North East,64010,Launceston (C)
2020,40243,15866,Beaconsfield Primary School,BEACONSFIELD,TAS,7270,Government,Primary,School Single Entity,Individual Reporting,-41.20319085,146.8219466,2,Outer Regional,60109270000,60202105306,602021053,Beauty Point - Beaconsfield,60202,Meander Valley - West Tamar,602,Launceston and North East,65810,West Tamar (M)
2020,40244,15873,Newstead Christian School,NEWSTEAD,TAS,7250,Independent,Combined,School Single Entity,Individual Reporting,-41.438287,147.165078,1,Inner Regional,60082010000,60201104211,602011042,Newstead,60201,Launceston,602,Launceston and North East,64010,Launceston (C)
2020,40245,15939,St Virgil's College,AUSTINS FERRY,TAS,7011,Catholic,Combined,School Head Campus,Rolled Reporting,-42.774178,147.251698,1,Inner Regional,60105824100,60103101305,601031013,Austins Ferry - Granton,60103,Hobart - North West,601,Hobart,62610,Glenorchy (C)
2020,40247,16957,Peregrine,NICHOLLS RIVULET,TAS,7112,Independent,Primary,School Single Entity,Individual Reporting,-43.141636,147.152841,2,Outer Regional,60064580000,60302107007,603021070,Cygnet,60302,Huon - Bruny Island,603,South East,63010,Huon Valley (M)
2020,40249,17212,Mountain Heights School,QUEENSTOWN,TAS,7467,Government,Combined,School Single Entity,Individual Reporting,-42.09410938,145.549574,3,Remote,60106011000,60403109710,604031097,West Coast (Tas.),60403,West Coast,604,West and North West,65610,West Coast (M)
2020,40250,17219,St Brendan-Shaw College,DEVONPORT,TAS,7310,Catholic,Secondary,School Single Entity,Individual Reporting,-41.167167,146.342373,1,Inner Regional,60039130000,60402108515,604021085,Devonport,60402,Devonport,604,West and North West,61610,Devonport (C)
2020,40251,17222,St Patrick's College,PROSPECT VALE,TAS,7250,Catholic,Secondary,School Head Campus,Rolled Reporting,-41.473557,147.127444,1,Inner Regional,60105765900,60201104810,602011048,Summerhill - Prospect,60201,Launceston,602,Launceston and North East,64010,Launceston (C)
2020,40252,17224,Marist Regional College,BURNIE,TAS,7320,Catholic,Secondary,School Single Entity,Individual Reporting,-41.04803,145.886284,2,Outer Regional,60005310000,60401107815,604011078,Parklands - Camdale,60401,Burnie - Ulverstone,604,West and North West,60610,Burnie (C)
2020,40254,17405,Cape Barren Island School,CAPE BARREN ISLAND,TAS,7257,Government,Combined,School Single Entity,Individual Reporting,-40.369305,148.024571,4,Very Remote,60043760000,60203109904,602031099,Flinders and Cape Barren Islands,60203,North East,602,Launceston and North East,62010,Flinders (M) (Tas.)
2020,40255,29972,Southern Support School,HOWRAH,TAS,7018,Government,Combined,School Single Entity,Individual Reporting,-42.88107919,147.4021105,1,Inner Regional,60105820200,60102100705,601021007,Howrah - Tranmere,60102,Hobart - North East,601,Hobart,61410,Clarence (C)
2020,40257,17627,Calvin Christian School,KINGSTON,TAS,7050,Independent,Primary,School Head Campus,Rolled Reporting,-42.97993089,147.3050204,1,Inner Regional,60074060000,60104102215,601041022,Kingston - Huntingfield,60104,Hobart - South and West,601,Hobart,63610,Kingborough (M)
2020,40259,22818,Sunrise Christian School Fullarton,FULLARTON,SA,5063,Independent,Primary,School Single Entity,Individual Reporting,-34.954499,138.621828,0,Major Cities,40215118100,40107102403,401071024,Unley - Parkside,40107,Unley,401,Adelaide - Central and Hills,47980,Unley (C)
2020,40260,17482,Northern Support School,RAVENSWOOD,TAS,7250,Government,Combined,School Single Entity,Individual Reporting,-41.42370127,147.1724136,1,Inner Regional,60088112000,60201104507,602011045,Ravenswood,60201,Launceston,602,Launceston and North East,64010,Launceston (C)
2020,40261,66584,Ngaanyatjarra Lands School,NGAANYATJARRA-GILES,WA,872,Government,Combined,School Head Campus,Rolled Reporting,-25.28353,127.54272,4,Very Remote,50397190000,51103128317,511031283,Leinster - Leonora,51103,Goldfields,511,Western Australia - Outback (South),56620,Ngaanyatjarraku (S)
2020,40262,77047,Launceston Church Grammar School - Junior Campus,EAST LAUNCESTON,TAS,7250,Independent,Primary,School Sub-Campus and Single entity,Rolled Reporting,-41.433996,147.149315,1,Inner Regional,60082090000,60201103804,602011038,Launceston,60201,Launceston,602,Launceston and North East,64010,Launceston (C)
2020,40263,77049,Scotch Oakburn College - Elphin Campus,LAUNCESTON,TAS,7250,Independent,Primary,School Sub-Campus and Single entity,Rolled Reporting,-41.434589,147.152685,1,Inner Regional,60086460000,60201104201,602011042,Newstead,60201,Launceston,602,Launceston and North East,64010,Launceston (C)
2020,40264,77209,Leighland Christian School - Burnie Campus,WIVENHOE,TAS,7320,Independent,Primary,School Sub-Campus and Single entity,Rolled Reporting,-41.069016,145.935864,2,Outer Regional,60005360000,60401107709,604011077,Burnie - Wivenhoe,60401,Burnie - Ulverstone,604,West and North West,60610,Burnie (C)
2020,40265,77303,St Virgil's College - St Virgil's Junior School,HOBART,TAS,7000,Catholic,Primary,School Sub-Campus and Single entity,Rolled Reporting,-42.882906,147.317603,1,Inner Regional,60057940000,60105102717,601051027,Hobart,60105,Hobart Inner,601,Hobart,62810,Hobart (C)
2020,40266,77311,OneSchool Global - Launceston Campus,KINGS MEADOWS,TAS,7249,Independent,Combined,School Sub-Campus and Single entity,Rolled Reporting,-41.451375,147.160437,1,Inner Regional,60080900000,60201104207,602011042,Newstead,60201,Launceston,602,Launceston and North East,64010,Launceston (C)
2020,40269,77350,Australian Christian College - Launceston,NEWNHAM,TAS,7248,Independent,Combined,School Single Entity,Individual Reporting,-41.386094,147.12747,1,Inner Regional,60088990000,60201104106,602011041,Newnham - Mayfield,60201,Launceston,602,Launceston and North East,64010,Launceston (C)
2020,40270,30319,Emmanuel Christian School,ROKEBY,TAS,7019,Independent,Combined,School Single Entity,Individual Reporting,-42.90075556,147.4385796,1,Inner Regional,60033720000,60102101116,601021011,Rokeby,60102,Hobart - North East,601,Hobart,61410,Clarence (C)
2020,40271,84755,Northern Christian School,BRIDGEWATER,TAS,7030,Independent,Primary,School Single Entity,Individual Reporting,-42.730637,147.223489,1,Inner Regional,60003560000,60101100122,601011001,Bridgewater - Gagebrook,60101,Brighton,601,Hobart,60410,Brighton (M)
2020,40272,30320,Channel Christian School,MARGATE,TAS,7054,Independent,Primary,School Single Entity,Individual Reporting,-43.027034,147.271393,1,Inner Regional,60075451000,60104102412,601041024,Margate - Snug,60104,Hobart - South and West,601,Hobart,63610,Kingborough (M)
2020,40273,77399,Australian Christian College - Hobart,GEILSTON BAY,TAS,7015,Independent,Combined,School Single Entity,Individual Reporting,-42.839534,147.353018,1,Inner Regional,60031480000,60102100603,601021006,Geilston Bay - Risdon,60102,Hobart - North East,601,Hobart,61410,Clarence (C)
2020,40275,28510,Saint Mary MacKillop College Albury,JINDERA,NSW,2642,Independent,Combined,School Single Entity,Individual Reporting,-35.902879,146.826712,1,Inner Regional,10319150000,10901117503,109011175,Albury Region,10901,Albury,109,Murray,13340,Greater Hume Shire (A)
2020,40276,5298,St Dominic Savio School,ROCKDALE,NSW,2216,Independent,Primary,School Single Entity,Individual Reporting,-33.950985,151.149577,0,Major Cities,11204785400,11904138116,119041381,Rockdale - Banksia,11904,Kogarah - Rockdale,119,Sydney - Inner South West,10500,Bayside (A)
2020,40277,26768,Saint Mary MacKillop Colleges Limited,WAGGA WAGGA,NSW,2650,Independent,Combined,School Single Entity,Individual Reporting,-35.12896698,147.3479814,1,Inner Regional,11204625500,11303126940,113031269,Wagga Wagga - South,11303,Wagga Wagga,113,Riverina,17750,Wagga Wagga (C)
2020,40280,25834,Kurnai College - University Campus,CHURCHILL,VIC,3842,Government,Secondary,School Sub-Campus and Single entity,Rolled Reporting,-38.30939,146.424883,1,Inner Regional,20347040000,20504109424,205041094,Churchill,20504,Latrobe Valley,205,Latrobe - Gippsland,23810,Latrobe (C) (Vic.)
2020,40281,15414,St Philomena School,PARK RIDGE,QLD,4125,Independent,Combined,School Single Entity,Individual Reporting,-27.718998,153.08414,0,Major Cities,30563130100,31103131132,311031311,Boronia Heights - Park Ridge,31103,Browns Plains,311,Logan - Beaudesert,34590,Logan (C)
2020,40284,68662,Darkan Primary School,DARKAN,WA,6392,Government,Primary,School Single Entity,Individual Reporting,-33.33590866,116.7331568,2,Outer Regional,50333860000,50903125013,509031250,Wagin,50903,Wheat Belt - South,509,Western Australia - Wheat Belt,58890,West Arthur (S)
2020,40290,46862,Sir David Brand School,COOLBINIA,WA,6050,Government,Combined,School Single Entity,Individual Reporting,-31.9123745,115.8596954,0,Major Cities,50293930000,50502109730,505021097,Yokine - Coolbinia - Menora,50502,Stirling,505,Perth - North West,57910,Stirling (C)
2020,40294,15947,Divine Mercy College,YANGEBUP,WA,6164,Independent,Combined,School Single Entity,Individual Reporting,-32.123981,115.82463,0,Major Cities,50072090000,50701116304,507011163,Yangebup,50701,Cockburn,507,Perth - South West,51820,Cockburn (C)
2020,40295,77115,Rehoboth Christian College - Wilson Campus,WILSON,WA,6107,Independent,Primary,School Sub-Campus and Single entity,Rolled Reporting,-32.01355,115.9141,0,Major Cities,50052230000,50603112436,506031124,Bentley - Wilson - St James,50603,Canning,506,Perth - South East,51330,Canning (C)
2020,40296,14037,Swan Christian College - Junior School Campus,MIDDLE SWAN,WA,6056,Independent,Primary,School Sub-Campus and Single entity,Rolled Reporting,-31.858097,116.012437,0,Major Cities,50308200000,50403106510,504031065,Middle Swan - Herne Hill,50403,Swan,504,Perth - North East,58050,Swan (C)
2020,40299,7467,Port Neill Primary School,PORT NEILL,SA,5604,Government,Primary,School Single Entity,Individual Reporting,-34.11700739,136.3427703,3,Remote,40215054200,40601113009,406011130,Eyre Peninsula,40601,Eyre Peninsula and South West,406,South Australia - Outback,47910,Tumby Bay (DC)
2020,40309,6063,Thebarton Senior College,TORRENSVILLE,SA,5031,Government,Secondary,School Single Entity,Individual Reporting,-34.917275,138.562772,0,Major Cities,40210030000,40403110825,404031108,Richmond (SA),40403,West Torrens,404,Adelaide - West,48410,West Torrens (C)
2020,40314,16500,Kangaroo Island Community Education - Penneshaw Campus,PENNESHAW,SA,5222,Government,Combined,School Sub-Campus and Single entity,Rolled Reporting,-35.720872,137.931836,3,Remote,40215171700,40701114502,407011145,Kangaroo Island,40701,Fleurieu - Kangaroo Island,407,South Australia - South East,42750,Kangaroo Island (DC)
2020,40316,77487,OneSchool Global SA - Mount Gambier Campus,MOUNT GAMBIER,SA,5290,Independent,Combined,School Sub-Campus and Single entity,Rolled Reporting,-37.816856,140.796901,1,Inner Regional,40215201600,40702117312,407021173,Mount Gambier - East,40702,Limestone Coast,407,South Australia - South East,44620,Mount Gambier (C)
2020,40318,85516,Sunrise Christian School Marion,MARION,SA,5043,Independent,Combined,School Single Entity,Individual Reporting,-35.016798,138.557341,0,Major Cities,40215143300,40302106128,403021061,Mitchell Park,40302,Marion,403,Adelaide - South,44060,Marion (C)
2020,40319,10315,O'Connor Cooperative School,O'CONNOR,ACT,2602,Government,Primary,School Single Entity,Individual Reporting,-35.261153,149.120241,0,Major Cities,80034770000,80105105801,801051058,O'Connor (ACT),80105,North Canberra,801,Australian Capital Territory,89399,Unincorporated ACT
2020,40320,6648,Erindale College,WANNIASSA,ACT,2903,Government,Secondary,School Single Entity,Individual Reporting,-35.403049,149.096551,0,Major Cities,80041890000,80107109007,801071090,Wanniassa,80107,Tuggeranong,801,Australian Capital Territory,89399,Unincorporated ACT
2020,40321,10380,Hawker College,HAWKER,ACT,2614,Government,Secondary,School Single Entity,Individual Reporting,-35.244317,149.031897,0,Major Cities,80020810000,80101101309,801011013,Hawker,80101,Belconnen,801,Australian Capital Territory,89399,Unincorporated ACT
2020,40322,4967,Narrabundah College,NARRABUNDAH,ACT,2604,Government,Secondary,School Single Entity,Individual Reporting,-35.335969,149.147097,0,Major Cities,80031730000,80106106710,801061067,Narrabundah,80106,South Canberra,801,Australian Capital Territory,89399,Unincorporated ACT
2020,40325,15083,Southern Cross Early Childhood School,SCULLIN,ACT,2614,Government,Primary,School Single Entity,Individual Reporting,-35.2328,149.0384,0,Major Cities,80038830000,80101102401,801011024,Scullin,80101,Belconnen,801,Australian Capital Territory,89399,Unincorporated ACT
2020,40326,10353,Lyons Early Childhood School,LYONS,ACT,2606,Government,Primary,School Single Entity,Individual Reporting,-35.341633,149.076243,0,Major Cities,80027990000,80109110504,801091105,Lyons (ACT),80109,Woden Valley,801,Australian Capital Territory,89399,Unincorporated ACT
2020,40327,10342,Narrabundah Early Childhood School,NARRABUNDAH,ACT,2604,Government,Primary,School Single Entity,Individual Reporting,-35.329016,149.150698,0,Major Cities,80032150000,80106106704,801061067,Narrabundah,80106,South Canberra,801,Australian Capital Territory,89399,Unincorporated ACT
2020,40328,6647,Caroline Chisholm School,CHISHOLM,ACT,2905,Government,Combined,School Head Campus,Rolled Reporting,-35.4182,149.122,0,Major Cities,80056536700,80107107401,801071074,Chisholm,80107,Tuggeranong,801,Australian Capital Territory,89399,Unincorporated ACT
2020,40329,14390,Isabella Plains Early Childhood School,ISABELLA PLAINS,ACT,2905,Government,Primary,School Single Entity,Individual Reporting,-35.428716,149.089497,0,Major Cities,80023390000,80107108114,801071081,Isabella Plains,80107,Tuggeranong,801,Australian Capital Territory,89399,Unincorporated ACT
2020,40330,10354,The Canberra College,PHILLIP,ACT,2606,Government,Secondary,School Single Entity,Individual Reporting,-35.3404,149.0883,0,Major Cities,80036920000,80109110911,801091109,Phillip,80109,Woden Valley,801,Australian Capital Territory,89399,Unincorporated ACT
2020,40331,77308,St Mary MacKillop College - Wanniassa Campus,WANNIASSA,ACT,2905,Catholic,Secondary,School Sub-Campus and Single entity,Rolled Reporting,-35.4053,149.091,0,Major Cities,80041410000,80107109008,801071090,Wanniassa,80107,Tuggeranong,801,Australian Capital Territory,89399,Unincorporated ACT
2020,40332,2064,Daramalan College,DICKSON,ACT,2602,Independent,Secondary,School Single Entity,Individual Reporting,-35.2535,149.1387,0,Major Cities,80010120000,80105105401,801051054,Dickson,80105,North Canberra,801,Australian Capital Territory,89399,Unincorporated ACT
2020,40333,2067,Marist College Canberra,PEARCE,ACT,2607,Independent,Combined,School Single Entity,Individual Reporting,-35.3603,149.088,0,Major Cities,80036340000,80109110801,801091108,Pearce,80109,Woden Valley,801,Australian Capital Territory,89399,Unincorporated ACT
2020,40334,2068,St Edmund's College Canberra,GRIFFITH,ACT,2603,Independent,Combined,School Single Entity,Individual Reporting,-35.323315,149.144412,0,Major Cities,80018850000,80106106404,801061064,Griffith (ACT),80106,South Canberra,801,Australian Capital Territory,89399,Unincorporated ACT
2020,40337,7944,Darwin High School,THE GARDENS,NT,820,Government,Secondary,School Single Entity,Individual Reporting,-12.43893,130.83398,2,Outer Regional,70012750000,70101100405,701011004,Fannie Bay - The Gardens,70101,Darwin City,701,Darwin,71000,Darwin (C)
2020,40338,17531,Northern Territory School of Distance Education,THE GARDENS,NT,820,Government,Secondary,School Single Entity,Individual Reporting,-12.43964837,130.8339947,2,Outer Regional,70012750000,70101100405,701011004,Fannie Bay - The Gardens,70101,Darwin City,701,Darwin,71000,Darwin (C)
2020,40339,16545,Centralian Senior College,ALICE SPRINGS,NT,870,Government,Secondary,School Single Entity,Individual Reporting,-23.6979,133.8953,3,Remote,70016414100,70201104613,702011046,East Side,70201,Alice Springs,702,Northern Territory - Outback,70200,Alice Springs (T)
2020,40342,16578,Woolaning School,LITCHFIELD PARK,NT,822,Government,Combined,School Single Entity,Individual Reporting,-13.098819,130.654431,3,Remote,70016417300,70203105708,702031057,Alligator,70203,Daly - Tiwi - West Arnhem,702,Northern Territory - Outback,79399,Unincorporated NT
2020,40343,15336,Araluen Christian College,ALICE SPRINGS,NT,870,Independent,Combined,School Single Entity,Individual Reporting,-23.70771,133.85232,3,Remote,70001090000,70201104702,702011047,Flynn (NT),70201,Alice Springs,702,Northern Territory - Outback,70200,Alice Springs (T)
2020,40344,3001,Holy Family Catholic Primary School,KARAMA,NT,812,Catholic,Primary,School Single Entity,Individual Reporting,-12.39367,130.91166,2,Outer Regional,70008160000,70102101908,701021019,Karama,70102,Darwin Suburbs,701,Darwin,71000,Darwin (C)
2020,40345,2076,Holy Spirit Catholic Primary School,WANGURI,NT,810,Catholic,Primary,School Single Entity,Individual Reporting,-12.373488,130.88543,2,Outer Regional,70013460000,70102101307,701021013,Brinkin - Nakara,70102,Darwin Suburbs,701,Darwin,71000,Darwin (C)
2020,40346,6880,O'Loughlin Catholic College,KARAMA,NT,812,Catholic,Secondary,School Single Entity,Individual Reporting,-12.39337,130.91045,2,Outer Regional,70008160000,70102101908,701021019,Karama,70102,Darwin Suburbs,701,Darwin,71000,Darwin (C)
2020,40347,14535,Our Lady of the Sacred Heart Catholic College,ALICE SPRINGS,NT,870,Catholic,Combined,School Head Campus,Rolled Reporting,-23.707543,133.876955,3,Remote,70002940000,70201104902,702011049,Mount Johns,70201,Alice Springs,702,Northern Territory - Outback,70200,Alice Springs (T)
2020,40348,6881,Sacred Heart Catholic Primary School,WOODROFFE,NT,830,Catholic,Primary,School Single Entity,Individual Reporting,-12.49588,130.97937,2,Outer Regional,70024450000,70104104402,701041044,Woodroffe,70104,Palmerston,701,Darwin,72800,Palmerston (C)
2020,40349,15426,St Francis of Assisi Catholic Primary School,HUMPTY DOO,NT,836,Catholic,Primary,School Single Entity,Individual Reporting,-12.581199,131.099073,2,Outer Regional,70019720000,70103103206,701031032,Humpty Doo,70103,Litchfield,701,Darwin,72300,Litchfield (M)
2020,40350,13633,St John's Catholic College,THE GARDENS,NT,820,Catholic,Secondary,School Single Entity,Individual Reporting,-12.440794,130.837954,2,Outer Regional,70012770000,70101100405,701011004,Fannie Bay - The Gardens,70101,Darwin City,701,Darwin,71000,Darwin (C)
2020,40351,6882,St Joseph's Catholic College,KATHERINE,NT,850,Catholic,Combined,School Single Entity,Individual Reporting,-14.46194,132.27593,3,Remote,70018730000,70205106725,702051067,Katherine,70205,Katherine,702,Northern Territory - Outback,72200,Katherine (T)
2020,40352,2069,St Mary's Catholic Primary School,DARWIN,NT,800,Catholic,Primary,School Single Entity,Individual Reporting,-12.45935,130.83883,2,Outer Regional,70006220000,70101100210,701011002,Darwin City,70101,Darwin City,701,Darwin,71000,Darwin (C)
2020,40353,2071,St Paul's Catholic Primary School,RAPID CREEK,NT,810,Catholic,Primary,School Single Entity,Individual Reporting,-12.38695,130.85821,2,Outer Regional,70011890000,70102102601,701021026,Rapid Creek,70102,Darwin Suburbs,701,Darwin,71000,Darwin (C)
2020,40354,77000,Canberra Grammar School - Northside Infants Campus,CAMPBELL,ACT,2612,Independent,Primary,School Sub-Campus and Single entity,Rolled Reporting,-35.2853,149.1471,0,Major Cities,80005620000,80105112402,801051124,Campbell,80105,North Canberra,801,Australian Capital Territory,89399,Unincorporated ACT
2020,40356,285,Muirden Senior College,ADELAIDE,SA,5000,Independent,Secondary,School Single Entity,Individual Reporting,-34.933349,138.600554,0,Major Cities,40243830000,40101100138,401011001,Adelaide,40101,Adelaide City,401,Adelaide - Central and Hills,40070,Adelaide (C)
2020,40357,303,Sacred Heart College,SOMERTON PARK,SA,5044,Catholic,Combined,School Head Campus,Rolled Reporting,-34.996682,138.521367,0,Major Cities,40056570000,40301105711,403011057,Glenelg (SA),40301,Holdfast Bay,403,Adelaide - South,42600,Holdfast Bay (C)
2020,40366,1409,Kinma School,TERREY HILLS,NSW,2084,Independent,Primary,School Single Entity,Individual Reporting,-33.686607,151.216969,0,Major Cities,10809680000,12203143210,122031432,Terrey Hills - Duffys Forest,12203,Warringah,122,Sydney - Northern Beaches,15990,Northern Beaches (A)
2020,40367,1411,Knox Grammar School,WAHROONGA,NSW,2076,Independent,Combined,School Head Campus,Rolled Reporting,-33.723114,151.119418,0,Major Cities,10418380000,12103141211,121031412,Wahroonga (East) - Warrawee,12103,Ku-ring-gai,121,Sydney - North Sydney and Hornsby,14500,Ku-ring-gai (A)
2020,40369,1454,Moriah College,BONDI JUNCTION,NSW,2022,Independent,Combined,School Single Entity,Individual Reporting,-33.899355,151.244827,0,Major Cities,10834090000,11801134136,118011341,Bondi Junction - Waverly,11801,Eastern Suburbs - North,118,Sydney - Eastern Suburbs,18050,Waverley (A)
2020,40370,77639,"St Carthage's Primary School, Our Lady of Lourdes campus",LISMORE,NSW,2480,Catholic,Primary,School Sub-Campus and Single entity,Rolled Reporting,-28.820491,153.290809,1,Inner Regional,10469000000,11202124829,112021248,Lismore,11202,Richmond Valley - Hinterland,112,Richmond - Tweed,14850,Lismore (C)
2020,40372,1648,St Francis Xavier's College,HAMILTON,NSW,2303,Catholic,Secondary,School Single Entity,Individual Reporting,-32.927166,151.753714,0,Major Cities,11204622000,11103122427,111031224,Hamilton - Broadmeadow,11103,Newcastle,111,Newcastle and Lake Macquarie,15900,Newcastle (C)
2020,40374,1717,Holy Spirit Infants School,ABERMAIN,NSW,2326,Catholic,Primary,School Single Entity,Individual Reporting,-32.81091,151.443237,0,Major Cities,10209580000,10601111101,106011111,Kurri Kurri - Abermain,10601,Lower Hunter,106,Hunter Valley exc Newcastle,11720,Cessnock (C)
2020,40375,1756,St Joseph's Catholic Primary School Como - Oyster Bay,COMO,NSW,2226,Catholic,Primary,School Single Entity,Individual Reporting,-34.00927,151.073429,0,Major Cities,10731612000,12802153604,128021536,Oyster Bay - Como - Jannali,12802,Sutherland - Menai - Heathcote,128,Sydney - Sutherland,17150,Sutherland Shire (A)
2020,40378,2119,St Therese's Community Parish School,WILCANNIA,NSW,2836,Catholic,Primary,School Single Entity,Individual Reporting,-31.559128,143.379376,4,Very Remote,10203470000,10502109809,105021098,Far West,10502,Broken Hill and Far West,105,Far West and Orana,11700,Central Darling (A)
2020,40381,2363,Highfields Preparatory and Kindergarten School,LINDFIELD,NSW,2070,Independent,Primary,School Single Entity,Individual Reporting,-33.774982,151.163657,0,Major Cities,11205668800,12103140826,121031408,Lindfield - Roseville,12103,Ku-ring-gai,121,Sydney - North Sydney and Hornsby,14500,Ku-ring-gai (A)
2020,40383,2379,"Odyssey House, Progressive Learning Centre",EAGLE VALE,NSW,2558,Independent,Secondary,School Head Campus,Rolled Reporting,-34.034379,150.813818,0,Major Cities,11205533900,12302143828,123021438,Claymore - Eagle Vale - Raby,12302,Campbelltown (NSW),123,Sydney - Outer South West,11500,Campbelltown (C) (NSW)
2020,40384,2381,Coffs Harbour Christian Community School,BONVILLE,NSW,2450,Independent,Combined,School Head Campus,Rolled Reporting,-30.378228,153.057112,1,Inner Regional,10228230000,10402108950,104021089,Sawtell - Boambee,10402,Coffs Harbour,104,Coffs Harbour - Grafton,11800,Coffs Harbour (C)
2020,40387,2447,Learning Co-Operative School,HURSTBRIDGE,VIC,3099,Independent,Primary,School Single Entity,Individual Reporting,-37.62939233,145.2133347,0,Major Cities,20518152000,20903121216,209031212,Panton Hill - St Andrews,20903,Nillumbik - Kinglake,209,Melbourne - North East,25710,Nillumbik (S)
2020,40388,2522,Mt Maria College,MITCHELTON,QLD,4053,Catholic,Secondary,School Single Entity,Individual Reporting,-27.412361,152.979765,0,Major Cities,30562882700,30404110122,304041101,Mitchelton,30404,The Gap - Enoggera,304,Brisbane - West,31000,Brisbane (C)
2020,40392,3054,Andale School,KEW,VIC,3101,Independent,Combined,School Single Entity,Individual Reporting,-37.805513,145.036044,0,Major Cities,20075320000,20701115304,207011153,Kew,20701,Boroondara,207,Melbourne - Inner East,21110,Boroondara (C)
2020,40393,3067,The Currajong School,MALVERN EAST,VIC,3145,Independent,Combined,School Single Entity,Individual Reporting,-37.875953,145.059946,0,Major Cities,20632003610,20804119541,208041195,Malvern East,20804,Stonnington - East,208,Melbourne - Inner South,26350,Stonnington (C)
2020,40395,3082,Mansfield Autism Statewide Services,MANSFIELD,VIC,3722,Independent,Combined,School Head Campus,Rolled Reporting,-37.060799,146.085858,2,Outer Regional,20370050000,20401105710,204011057,Mansfield (Vic.),20401,Upper Goulburn Valley,204,Hume,24250,Mansfield (S)
2020,40396,3095,Rossbourne School,HAWTHORN,VIC,3122,Independent,Secondary,School Single Entity,Individual Reporting,-37.82304,145.02655,0,Major Cities,20067160000,20701115120,207011151,Hawthorn,20701,Boroondara,207,Melbourne - Inner East,21110,Boroondara (C)
2020,40400,3102,St Paul's College,BALWYN,VIC,3101,Independent,Combined,School Single Entity,Individual Reporting,-37.812213,145.086665,0,Major Cities,20075260000,20701115347,207011153,Kew,20701,Boroondara,207,Melbourne - Inner East,21110,Boroondara (C)
2020,40402,3130,Autism Queensland Education & Therapy Centre,SUNNYBANK HILLS,QLD,4109,Independent,Combined,School Head Campus,Rolled Reporting,-27.597672,153.043054,0,Major Cities,30122650000,30306108023,303061080,Sunnybank Hills,30306,Sunnybank,303,Brisbane - South,31000,Brisbane (C)
2020,40406,3403,Catholic Regional College Sydenham,SYDENHAM,VIC,3037,Catholic,Secondary,School Single Entity,Individual Reporting,-37.699136,144.771012,0,Major Cities,20082750000,21301133912,213011339,Sydenham,21301,Brimbank,213,Melbourne - West,21180,Brimbank (C)
2020,40408,4021,Tangara School for Girls,CHERRYBROOK,NSW,2126,Independent,Combined,School Single Entity,Individual Reporting,-33.7363676,151.0360805,0,Major Cities,10373670000,11501155839,115011558,Cherrybrook,11501,Baulkham Hills,115,Sydney - Baulkham Hills and Hawkesbury,14000,Hornsby (A)
2020,40409,4067,Heritage Christian School,PORT MACQUARIE,NSW,2444,Independent,Combined,School Single Entity,Individual Reporting,-31.430279,152.881802,1,Inner Regional,10344941000,10804116414,108041164,Port Macquarie - West,10804,Port Macquarie,108,Mid North Coast,16380,Port Macquarie-Hastings (A)
2020,40410,4201,"St Spyridon College, Junior School Campus",KINGSFORD,NSW,2032,Independent,Primary,School Sub-Campus and Single entity,Rolled Reporting,-33.925448,151.224481,0,Major Cities,10643240000,11802156514,118021565,Kingsford,11802,Eastern Suburbs - South,118,Sydney - Eastern Suburbs,16550,Randwick (C)
2020,40412,4768,Catherine McAuley College,BENDIGO,VIC,3550,Catholic,Secondary,School Head Campus,Rolled Reporting,-36.753444,144.273362,1,Inner Regional,20204210000,20201101821,202011018,Bendigo,20201,Bendigo,202,Bendigo,22620,Greater Bendigo (C)
2020,40421,6072,Northern Adelaide Senior College,ELIZABETH,SA,5112,Government,Secondary,School Single Entity,Individual Reporting,-34.71345547,138.6710182,0,Major Cities,40215073400,40202103001,402021030,Elizabeth,40202,Playford,402,Adelaide - North,45680,Playford (C)
2020,40422,6080,Marden Senior College,MARDEN,SA,5070,Government,Secondary,School Single Entity,Individual Reporting,-34.891954,138.63523,0,Major Cities,40214995700,40105101913,401051019,St Peters - Marden,40105,Norwood - Payneham - St Peters,401,Adelaide - Central and Hills,45290,Norwood Payneham St Peters (C)
2020,40423,6088,Edward John Eyre High School,WHYALLA NORRIE,SA,5608,Government,Secondary,School Single Entity,Individual Reporting,-33.026208,137.540961,2,Outer Regional,40217800000,40601113629,406011136,Whyalla,40601,Eyre Peninsula and South West,406,South Australia - Outback,48540,Whyalla (C)
2020,40424,6112,Central Yorke School - Point Pearce Campus,POINT PEARCE,SA,5573,Government,Combined,School Sub-Campus and Single entity,Rolled Reporting,-34.427855,137.504945,2,Outer Regional,40221861000,40504112702,405041127,Yorke Peninsula - North,40504,Yorke Peninsula,405,Barossa - Yorke - Mid North,48830,Yorke Peninsula (DC)
2020,40427,6213,Williamstown High School,WILLIAMSTOWN,VIC,3016,Government,Secondary,School Head Campus,Rolled Reporting,-37.862753,144.895131,0,Major Cities,20283310000,21302134611,213021346,Williamstown,21302,Hobsons Bay,213,Melbourne - West,23110,Hobsons Bay (C)
2020,40429,6238,Wodonga Senior Secondary College,WODONGA,VIC,3690,Government,Secondary,School Head Campus,Rolled Reporting,-36.12745035,146.8802276,1,Inner Regional,20620840000,20403107422,204031074,Wodonga,20403,Wodonga - Alpine,204,Hume,27170,Wodonga (C)
2020,40430,6242,Swinburne Senior Secondary College,HAWTHORN,VIC,3122,Government,Secondary,School Head Campus,Rolled Reporting,-37.823135,145.040821,0,Major Cities,20069812000,20701115117,207011151,Hawthorn,20701,Boroondara,207,Melbourne - Inner East,21110,Boroondara (C)
2020,40433,6253,Essendon Keilor College-Senior Campus,ESSENDON,VIC,3040,Government,Secondary,School Sub-Campus and Single entity,Rolled Reporting,-37.755219,144.901945,0,Major Cities,20447170000,20603111420,206031114,Essendon - Aberfeldie,20603,Essendon,206,Melbourne - Inner,25060,Moonee Valley (C)
2020,40434,6325,Echuca College,ECHUCA,VIC,3564,Government,Secondary,School Single Entity,Individual Reporting,-36.132394,144.732423,1,Inner Regional,20096911000,21601140615,216011406,Echuca,21601,Campaspe,216,Shepparton,21370,Campaspe (S)
2020,40436,6360,Chifley College Senior Campus,MOUNT DRUITT,NSW,2770,Government,Secondary,School Single Entity,Individual Reporting,-33.769305,150.829855,0,Major Cities,10106590000,11603131713,116031317,Mount Druitt - Whalan,11603,Mount Druitt,116,Sydney - Blacktown,10750,Blacktown (C)
2020,40437,6407,Moree Secondary College Albert St Campus,MOREE,NSW,2400,Government,Secondary,School Single Entity,Individual Reporting,-29.48198938,149.8398544,2,Outer Regional,10523760000,11003119516,110031195,Moree,11003,Moree - Narrabri,110,New England and North West,15300,Moree Plains (A)
2020,40438,6426,St Marys Senior High School,ST MARYS,NSW,2760,Government,Secondary,School Single Entity,Individual Reporting,-33.763119,150.770024,0,Major Cities,10606310000,12405158126,124051581,St Marys - North St Marys,12405,St Marys,124,Sydney - Outer West and Blue Mountains,16350,Penrith (C)
2020,40440,6489,Brisbane Water Secondary College Woy Woy Campus,WOY WOY,NSW,2256,Government,Secondary,School Single Entity,Individual Reporting,-33.492687,151.323582,0,Major Cities,10296730000,10201104205,102011042,Woy Woy - Blackwall,10201,Gosford,102,Central Coast,11650,Central Coast (C) (NSW)
2020,40441,6496,Sydney Secondary College Blackwattle Bay Campus,GLEBE,NSW,2037,Government,Secondary,School Single Entity,Individual Reporting,-33.875142,151.188357,0,Major Cities,10757930000,11703133116,117031331,Glebe - Forest Lodge,11703,Sydney Inner City,117,Sydney - City and Inner South,17200,Sydney (C)
2020,40443,6594,Launceston College,LAUNCESTON,TAS,7250,Government,Secondary,School Single Entity,Individual Reporting,-41.43992227,147.1328946,1,Inner Regional,60082080000,60201103811,602011038,Launceston,60201,Launceston,602,Launceston and North East,64010,Launceston (C)
2020,40444,6605,Elizabeth College,NORTH HOBART,TAS,7000,Government,Secondary,School Single Entity,Individual Reporting,-42.87760164,147.3177552,1,Inner Regional,60059580000,60105102705,601051027,Hobart,60105,Hobart Inner,601,Hobart,62810,Hobart (C)
2020,40445,6612,Rosny College,ROSNY PARK,TAS,7018,Government,Secondary,School Single Entity,Individual Reporting,-42.86932994,147.3653363,1,Inner Regional,60032190000,60102100401,601021004,Bellerive - Rosny,60102,Hobart - North East,601,Hobart,61410,Clarence (C)
2020,40446,46664,Sevenoaks Senior College,CANNINGTON,WA,6107,Government,Secondary,School Single Entity,Individual Reporting,-32.01209,115.94261,0,Major Cities,50391711600,50603112725,506031127,Cannington - Queens Park,50603,Canning,506,Perth - South East,51330,Canning (C)
2020,40447,46674,North Lake Senior Campus,KARDINYA,WA,6163,Government,Secondary,School Single Entity,Individual Reporting,-32.07413,115.81394,0,Major Cities,50209220000,50704118203,507041182,Murdoch - Kardinya,50704,Melville,507,Perth - South West,55320,Melville (C)
2020,40448,46716,Cyril Jackson Senior Campus,BASSENDEAN,WA,6054,Government,Secondary,School Single Entity,Individual Reporting,-31.91352,115.9427,0,Major Cities,50019670000,50401104421,504011044,Bassendean - Eden Hill - Ashfield,50401,Bayswater - Bassendean,504,Perth - North East,50350,Bassendean (T)
2020,40450,46725,Canning College,BENTLEY,WA,6102,Government,Secondary,School Single Entity,Individual Reporting,-32.01042787,115.8970779,0,Major Cities,50311901000,50603112412,506031124,Bentley - Wilson - St James,50603,Canning,506,Perth - South East,58510,Victoria Park (T)
2020,40452,6741,Tallowood Steiner School,BOWRAVILLE,NSW,2449,Independent,Primary,School Single Entity,Individual Reporting,-30.63428,152.855876,2,Outer Regional,10533211000,10802115907,108021159,Nambucca Heads Region,10802,Kempsey - Nambucca,108,Mid North Coast,15700,Nambucca (A)
2020,40487,7473,Port Lincoln Junior Primary School,PORT LINCOLN,SA,5606,Government,Primary,School Single Entity,Individual Reporting,-34.724303,135.857806,3,Remote,40155530000,40601113319,406011133,Port Lincoln,40601,Eyre Peninsula and South West,406,South Australia - Outback,46300,Port Lincoln (C)
2020,40492,7590,Australia Street Infants School,NEWTOWN,NSW,2042,Government,Primary,School Single Entity,Individual Reporting,-33.895783,151.177607,0,Major Cities,10508340000,11703133233,117031332,Newtown - Camperdown - Darlington,11703,Sydney Inner City,117,Sydney - City and Inner South,14170,Inner West (A)
2020,40493,7601,Russell Lea Public School,RUSSELL LEA,NSW,2046,Government,Primary,School Single Entity,Individual Reporting,-33.861418,151.142572,0,Major Cities,10176640000,12001138511,120011385,Drummoyne - Rodd Point,12001,Canada Bay,120,Sydney - Inner West,11520,Canada Bay (A)
2020,40494,7607,Taverners Hill Infants School,PETERSHAM,NSW,2049,Government,Primary,School Single Entity,Individual Reporting,-33.888955,151.157199,0,Major Cities,10507850000,11702132721,117021327,Petersham - Stanmore,11702,Marrickville - Sydenham - Petersham,117,Sydney - City and Inner South,14170,Inner West (A)
2020,40496,7710,Northern Beaches Secondary College Freshwater Senior Campus,FRESHWATER,NSW,2096,Government,Secondary,School Single Entity,Individual Reporting,-33.768258,151.279779,0,Major Cities,10817730000,12203142918,122031429,Freshwater - Brookvale,12203,Warringah,122,Sydney - Northern Beaches,15990,Northern Beaches (A)
2020,40499,7775,Yeo Park Infants School,ASHFIELD,NSW,2131,Government,Primary,School Single Entity,Individual Reporting,-33.90251807,151.1296902,0,Major Cities,10012430000,12003139030,120031390,Ashfield,12003,Strathfield - Burwood - Ashfield,120,Sydney - Inner West,14170,Inner West (A)
2020,40500,7968,Casuarina Senior College,MOIL,NT,810,Government,Secondary,School Single Entity,Individual Reporting,-12.3836,130.879,2,Outer Regional,70010220000,70102102403,701021024,Moil,70102,Darwin Suburbs,701,Darwin,71000,Darwin (C)
2020,40512,8142,Fowler Road School,MERRYLANDS,NSW,2160,Government,Combined,School Single Entity,Individual Reporting,-33.841497,150.975533,0,Major Cities,10369830000,12503148532,125031485,Merrylands - Holroyd,12503,Merrylands - Guildford,125,Sydney - Parramatta,12380,Cumberland (A)
2020,40513,8150,Sefton Infants School,SEFTON,NSW,2162,Government,Primary,School Single Entity,Individual Reporting,-33.889237,151.009588,0,Major Cities,10038700000,12503147929,125031479,Chester Hill - Sefton,12503,Merrylands - Guildford,125,Sydney - Parramatta,11570,Canterbury-Bankstown (A)
2020,40519,8388,Blackburn English Language School,BURWOOD EAST,VIC,3151,Government,Combined,School Head Campus,Rolled Reporting,-37.847889,145.148292,0,Major Cities,20604890000,20703116616,207031166,Burwood East,20703,Whitehorse - West,207,Melbourne - Inner East,26980,Whitehorse (C)
2020,40522,8558,Mount Lewis Infants School,GREENACRE,NSW,2190,Government,Primary,School Single Entity,Individual Reporting,-33.916084,151.04976,0,Major Cities,10032380000,11901135728,119011357,Greenacre - Mount Lewis,11901,Bankstown,119,Sydney - Inner South West,11570,Canterbury-Bankstown (A)
2020,40523,8576,Bankstown South Infants School,BANKSTOWN,NSW,2200,Government,Primary,School Single Entity,Individual Reporting,-33.93123,151.038402,0,Major Cities,10032510000,11901157218,119011572,Bankstown - South,11901,Bankstown,119,Sydney - Inner South West,11570,Canterbury-Bankstown (A)
2020,40524,8586,Arncliffe West Infants School,ARNCLIFFE,NSW,2205,Government,Primary,School Single Entity,Individual Reporting,-33.931832,151.14516,0,Major Cities,11204719900,11904137511,119041375,Arncliffe - Bardwell Valley,11904,Kogarah - Rockdale,119,Sydney - Inner South West,10500,Bayside (A)
2020,40525,8591,Bardwell Park Infants School,BARDWELL PARK,NSW,2207,Government,Primary,School Single Entity,Individual Reporting,-33.93349921,151.1253783,0,Major Cities,10659780000,11904137730,119041377,Kingsgrove (South) - Bardwell Park,11904,Kogarah - Rockdale,119,Sydney - Inner South West,10500,Bayside (A)
2020,40526,8633,Hurstville Grove Infants School,PENSHURST,NSW,2222,Government,Primary,School Single Entity,Individual Reporting,-33.973128,151.090536,0,Major Cities,10413970000,11903137120,119031371,Oatley - Hurstville Grove,11903,Hurstville,119,Sydney - Inner South West,12930,Georges River (A)
2020,40528,9036,Kotara School,KOTARA,NSW,2289,Government,Combined,School Single Entity,Individual Reporting,-32.94283,151.700379,0,Major Cities,10556400000,11103122203,111031222,Adamstown - Kotara,11103,Newcastle,111,Newcastle and Lake Macquarie,15900,Newcastle (C)
2020,40530,9115,Callaghan College Jesmond Senior Campus,JESMOND,NSW,2299,Government,Secondary,School Single Entity,Individual Reporting,-32.90150524,151.6962969,0,Major Cities,10551680000,11103123124,111031231,Shortland - Jesmond,11103,Newcastle,111,Newcastle and Lake Macquarie,15900,Newcastle (C)
2020,40532,9146,New Lambton Heights Infants School,NEW LAMBTON HEIGHTS,NSW,2305,Government,Primary,School Single Entity,Individual Reporting,-32.934855,151.688027,0,Major Cities,10555860000,11101120956,111011209,Glendale - Cardiff - Hillsborough,11101,Lake Macquarie - East,111,Newcastle and Lake Macquarie,15900,Newcastle (C)
2020,40533,9159,Nillo Infants School,LORN,NSW,2320,Government,Primary,School Single Entity,Individual Reporting,-32.727541,151.559611,0,Major Cities,10501820000,10602111610,106021116,Maitland - North,10602,Maitland,106,Hunter Valley exc Newcastle,15050,Maitland (C)
2020,40543,9308,Stanford Merthyr Infants School,STANFORD MERTHYR,NSW,2327,Government,Primary,School Single Entity,Individual Reporting,-32.823423,151.495438,0,Major Cities,10206910000,10601111113,106011111,Kurri Kurri - Abermain,10601,Lower Hunter,106,Hunter Valley exc Newcastle,11720,Cessnock (C)
2020,40545,9421,Glen Innes West Infants School,GLEN INNES,NSW,2370,Government,Primary,School Single Entity,Individual Reporting,-29.738734,151.723882,2,Outer Regional,10280910000,11002119006,110021190,Glen Innes,11002,Inverell - Tenterfield,110,New England and North West,13010,Glen Innes Severn (A)
2020,40552,9933,Penshurst Primary School,PENSHURST,VIC,3289,Government,Primary,School Single Entity,Individual Reporting,-37.87947471,142.2909686,2,Outer Regional,20542960000,21701142306,217011423,Southern Grampians,21701,Glenelg - Southern Grampians,217,Warrnambool and South West,26260,Southern Grampians (S)
2020,40559,10550,Narrandera East Infants School,NARRANDERA,NSW,2700,Government,Primary,School Single Entity,Individual Reporting,-34.75016785,146.564682,2,Outer Regional,10537620000,11301125914,113011259,Narrandera,11301,Griffith - Murrumbidgee (West),113,Riverina,15800,Narrandera (A)
2020,40560,10663,Jugiong Public School,JUGIONG,NSW,2726,Government,Primary,School Single Entity,Individual Reporting,-34.792809,148.30816,2,Outer Regional,11205584600,10106154204,101061542,Yass Region,10106,Young - Yass,101,Capital Region,13910,Hilltops (A)
